[
    {
      "City": "Абаза",
      "Lat": 52.6517296,
      "Lon": 90.0885929
    },
    {
      "City": "Абакан",
      "Lat": 53.7223661,
      "Lon": 91.4437792
    },
    {
      "City": "Абдулино",
      "Lat": 53.6778096,
      "Lon": 53.6473115
    },
    {
      "City": "Абинск",
      "Lat": 44.8679931,
      "Lon": 38.1618437
    },
    {
      "City": "Агидель",
      "Lat": 55.89976,
      "Lon": 53.9221149
    },
    {
      "City": "Агрыз",
      "Lat": 56.5232645,
      "Lon": 52.994257
    },
    {
      "City": "Адыгейск",
      "Lat": 44.8783715,
      "Lon": 39.190172
    },
    {
      "City": "Азнакаево",
      "Lat": 54.8599054,
      "Lon": 53.0745505
    },
    {
      "City": "Азов",
      "Lat": 47.1120631,
      "Lon": 39.4232597
    },
    {
      "City": "Ак-Довурак",
      "Lat": 51.1785658,
      "Lon": 90.5984511
    },
    {
      "City": "Аксай",
      "Lat": 47.2676075,
      "Lon": 39.8755485
    },
    {
      "City": "Алагир",
      "Lat": 43.0416151,
      "Lon": 44.2198622
    },
    {
      "City": "Алапаевск",
      "Lat": 57.8475542,
      "Lon": 61.6693934
    },
    {
      "City": "Алатырь",
      "Lat": 54.8398179,
      "Lon": 46.5721423
    },
    {
      "City": "Алдан",
      "Lat": 58.6094885,
      "Lon": 125.3816689
    },
    {
      "City": "Алейск",
      "Lat": 52.4920914,
      "Lon": 82.7794145
    },
    {
      "City": "Александров",
      "Lat": 56.3919652,
      "Lon": 38.711035
    },
    {
      "City": "Александровск",
      "Lat": 59.1613773,
      "Lon": 57.5764851
    },
    {
      "City": "Александровск-Сахалинский",
      "Lat": 50.8973664,
      "Lon": 142.1579322
    },
    {
      "City": "Алексеевка",
      "Lat": 50.6299932,
      "Lon": 38.6881776
    },
    {
      "City": "Алексин",
      "Lat": 54.5083788,
      "Lon": 37.047891
    },
    {
      "City": "Алзамай",
      "Lat": 55.5550493,
      "Lon": 98.6644106
    },
    {
      "City": "Алушта",
      "Lat": 44.6764419,
      "Lon": 34.4100387
    },
    {
      "City": "Альметьевск",
      "Lat": 54.9013662,
      "Lon": 52.2970654
    },
    {
      "City": "Амурск",
      "Lat": 50.2345017,
      "Lon": 136.8791135
    },
    {
      "City": "Анадырь",
      "Lat": 64.7314347,
      "Lon": 177.5015752
    },
    {
      "City": "Анапа",
      "Lat": 44.8950777,
      "Lon": 37.3163142
    },
    {
      "City": "Ангарск",
      "Lat": 52.5448102,
      "Lon": 103.8885385
    },
    {
      "City": "Андреаполь",
      "Lat": 56.6507072,
      "Lon": 32.2621196
    },
    {
      "City": "Анжеро-Судженск",
      "Lat": 56.0787179,
      "Lon": 86.0202207
    },
    {
      "City": "Анива",
      "Lat": 46.7132526,
      "Lon": 142.5265052
    },
    {
      "City": "Апатиты",
      "Lat": 67.5678295,
      "Lon": 33.4067218
    },
    {
      "City": "Апрелевка",
      "Lat": 55.5276336,
      "Lon": 37.0651105
    },
    {
      "City": "Апшеронск",
      "Lat": 44.4585239,
      "Lon": 39.7300092
    },
    {
      "City": "Арамиль",
      "Lat": 56.6945341,
      "Lon": 60.8343825
    },
    {
      "City": "Аргун",
      "Lat": 43.2918071,
      "Lon": 45.8724383
    },
    {
      "City": "Ардатов",
      "Lat": 54.8465693,
      "Lon": 46.2412736
    },
    {
      "City": "Ардон",
      "Lat": 43.1756719,
      "Lon": 44.2955701
    },
    {
      "City": "Арзамас",
      "Lat": 55.3947544,
      "Lon": 43.8407855
    },
    {
      "City": "Аркадак",
      "Lat": 51.9387813,
      "Lon": 43.4997558
    },
    {
      "City": "Армавир",
      "Lat": 45.0010338,
      "Lon": 41.132392
    },
    {
      "City": "Армянск",
      "Lat": 46.1059247,
      "Lon": 33.6910325
    },
    {
      "City": "Арсеньев",
      "Lat": 44.16208,
      "Lon": 133.269622
    },
    {
      "City": "Арск",
      "Lat": 56.0913636,
      "Lon": 49.8770441
    },
    {
      "City": "Артем",
      "Lat": 43.350053,
      "Lon": 132.1596594
    },
    {
      "City": "Артемовск",
      "Lat": 54.3472901,
      "Lon": 93.4356543
    },
    {
      "City": "Артемовский",
      "Lat": 57.3384162,
      "Lon": 61.8946599
    },
    {
      "City": "Архангельск",
      "Lat": 64.5392985,
      "Lon": 40.5170083
    },
    {
      "City": "Асбест",
      "Lat": 57.0052428,
      "Lon": 61.4581071
    },
    {
      "City": "Асино",
      "Lat": 56.9908444,
      "Lon": 86.1765724
    },
    {
      "City": "Астрахань",
      "Lat": 46.3655808,
      "Lon": 48.0559979
    },
    {
      "City": "Аткарск",
      "Lat": 51.8736331,
      "Lon": 45.0003199
    },
    {
      "City": "Ахтубинск",
      "Lat": 48.2753078,
      "Lon": 46.1906741
    },
    {
      "City": "Ачинск",
      "Lat": 56.2538662,
      "Lon": 90.47949
    },
    {
      "City": "Аша",
      "Lat": 54.9907105,
      "Lon": 57.2783704
    },
    {
      "City": "Бабаево",
      "Lat": 59.389309,
      "Lon": 35.9378318
    },
    {
      "City": "Бабушкин",
      "Lat": 51.7113066,
      "Lon": 105.8673633
    },
    {
      "City": "Бавлы",
      "Lat": 54.4063588,
      "Lon": 53.2457946
    },
    {
      "City": "Багратионовск",
      "Lat": 54.3866976,
      "Lon": 20.6418545
    },
    {
      "City": "Байкальск",
      "Lat": 51.5231282,
      "Lon": 104.1485752
    },
    {
      "City": "Баймак",
      "Lat": 52.5912632,
      "Lon": 58.3111995
    },
    {
      "City": "Бакал",
      "Lat": 54.9406759,
      "Lon": 58.8051085
    },
    {
      "City": "Баксан",
      "Lat": 43.6820621,
      "Lon": 43.5345627
    },
    {
      "City": "Балабаново",
      "Lat": 55.1773652,
      "Lon": 36.6567255
    },
    {
      "City": "Балаково",
      "Lat": 52.0222694,
      "Lon": 47.7828146
    },
    {
      "City": "Балахна",
      "Lat": 56.4949932,
      "Lon": 43.5758953
    },
    {
      "City": "Балашиха",
      "Lat": 55.7963352,
      "Lon": 37.9381413
    },
    {
      "City": "Балашов",
      "Lat": 51.5389502,
      "Lon": 43.1839828
    },
    {
      "City": "Балей",
      "Lat": 51.5822063,
      "Lon": 116.6380088
    },
    {
      "City": "Балтийск",
      "Lat": 54.6514128,
      "Lon": 19.9141911
    },
    {
      "City": "Барабинск",
      "Lat": 55.3515917,
      "Lon": 78.3465012
    },
    {
      "City": "Барнаул",
      "Lat": 53.3481145,
      "Lon": 83.7798362
    },
    {
      "City": "Барыш",
      "Lat": 53.6534563,
      "Lon": 47.1180805
    },
    {
      "City": "Батайск",
      "Lat": 47.138321,
      "Lon": 39.7508382
    },
    {
      "City": "Бахчисарай",
      "Lat": 44.751388,
      "Lon": 33.8750341
    },
    {
      "City": "Бежецк",
      "Lat": 57.7861144,
      "Lon": 36.6903445
    },
    {
      "City": "Белая Калитва",
      "Lat": 48.176948,
      "Lon": 40.8033169
    },
    {
      "City": "Белая Холуница",
      "Lat": 58.8415212,
      "Lon": 50.8461002
    },
    {
      "City": "Белгород",
      "Lat": 50.5977351,
      "Lon": 36.5858236
    },
    {
      "City": "Белебей",
      "Lat": 54.1033832,
      "Lon": 54.1111878
    },
    {
      "City": "Белев",
      "Lat": 53.8113348,
      "Lon": 36.1383153
    },
    {
      "City": "Белинский",
      "Lat": 52.9641169,
      "Lon": 43.4185003
    },
    {
      "City": "Белово",
      "Lat": 54.4221442,
      "Lon": 86.3036438
    },
    {
      "City": "Белогорск",
      "Lat": 50.9212235,
      "Lon": 128.4738742
    },
    {
      "City": "Белогорск",
      "Lat": 45.0571581,
      "Lon": 34.5998775
    },
    {
      "City": "Белозерск",
      "Lat": 60.0307914,
      "Lon": 37.7891123
    },
    {
      "City": "Белокуриха",
      "Lat": 51.9960534,
      "Lon": 84.9840343
    },
    {
      "City": "Беломорск",
      "Lat": 64.5378468,
      "Lon": 34.7799717
    },
    {
      "City": "Белорецк",
      "Lat": 53.9675927,
      "Lon": 58.4099562
    },
    {
      "City": "Белореченск",
      "Lat": 44.7652733,
      "Lon": 39.8780457
    },
    {
      "City": "Белоусово",
      "Lat": 55.0957679,
      "Lon": 36.6777239
    },
    {
      "City": "Белоярский",
      "Lat": 63.712181,
      "Lon": 66.6772357
    },
    {
      "City": "Белый",
      "Lat": 55.8337663,
      "Lon": 32.9388976
    },
    {
      "City": "Бердск",
      "Lat": 54.7582375,
      "Lon": 83.1072212
    },
    {
      "City": "Березники",
      "Lat": 59.4079898,
      "Lon": 56.8040725
    },
    {
      "City": "Березовский",
      "Lat": 56.9096284,
      "Lon": 60.8180256
    },
    {
      "City": "Березовский",
      "Lat": 55.6692853,
      "Lon": 86.2744636
    },
    {
      "City": "Беслан",
      "Lat": 43.1937634,
      "Lon": 44.5338746
    },
    {
      "City": "Бийск",
      "Lat": 52.5393683,
      "Lon": 85.2138852
    },
    {
      "City": "Бикин",
      "Lat": 46.8186244,
      "Lon": 134.2551046
    },
    {
      "City": "Билибино",
      "Lat": 68.0585533,
      "Lon": 166.4388451
    },
    {
      "City": "Биробиджан",
      "Lat": 48.7945975,
      "Lon": 132.9217594
    },
    {
      "City": "Бирск",
      "Lat": 55.4157107,
      "Lon": 55.5582335
    },
    {
      "City": "Бирюсинск",
      "Lat": 55.9608611,
      "Lon": 97.8203624
    },
    {
      "City": "Бирюч",
      "Lat": 50.6483899,
      "Lon": 38.4006203
    },
    {
      "City": "Благовещенск",
      "Lat": 50.2905935,
      "Lon": 127.5272186
    },
    {
      "City": "Благовещенск",
      "Lat": 55.0499592,
      "Lon": 55.955309
    },
    {
      "City": "Благодарный",
      "Lat": 45.0990834,
      "Lon": 43.4307042
    },
    {
      "City": "Бобров",
      "Lat": 51.0902048,
      "Lon": 40.0320014
    },
    {
      "City": "Богданович",
      "Lat": 56.7764419,
      "Lon": 62.0463692
    },
    {
      "City": "Богородицк",
      "Lat": 53.7700516,
      "Lon": 38.1225308
    },
    {
      "City": "Богородск",
      "Lat": 56.1019905,
      "Lon": 43.513678
    },
    {
      "City": "Боготол",
      "Lat": 56.209881,
      "Lon": 89.5300182
    },
    {
      "City": "Богучар",
      "Lat": 49.9352997,
      "Lon": 40.5592467
    },
    {
      "City": "Бодайбо",
      "Lat": 57.8468822,
      "Lon": 114.1867148
    },
    {
      "City": "Бокситогорск",
      "Lat": 59.4735032,
      "Lon": 33.8456521
    },
    {
      "City": "Болгар",
      "Lat": 54.9748862,
      "Lon": 49.0302977
    },
    {
      "City": "Бологое",
      "Lat": 57.885655,
      "Lon": 34.0536895
    },
    {
      "City": "Болотное",
      "Lat": 55.6693773,
      "Lon": 84.3906599
    },
    {
      "City": "Болохово",
      "Lat": 54.0820644,
      "Lon": 37.826844
    },
    {
      "City": "Болхов",
      "Lat": 53.4440204,
      "Lon": 36.0076969
    },
    {
      "City": "Большой Камень",
      "Lat": 43.1112737,
      "Lon": 132.3480354
    },
    {
      "City": "Бор",
      "Lat": 56.3565179,
      "Lon": 44.0644851
    },
    {
      "City": "Борзя",
      "Lat": 50.3875437,
      "Lon": 116.5235682
    },
    {
      "City": "Борисоглебск",
      "Lat": 51.3654619,
      "Lon": 42.100947
    },
    {
      "City": "Боровичи",
      "Lat": 58.3839866,
      "Lon": 33.9176761
    },
    {
      "City": "Боровск",
      "Lat": 55.2130965,
      "Lon": 36.4927446
    },
    {
      "City": "Бородино",
      "Lat": 55.9054308,
      "Lon": 94.9021138
    },
    {
      "City": "Братск",
      "Lat": 56.1513951,
      "Lon": 101.6339892
    },
    {
      "City": "Бронницы",
      "Lat": 55.4255534,
      "Lon": 38.2640794
    },
    {
      "City": "Брянск",
      "Lat": 53.2420071,
      "Lon": 34.3652716
    },
    {
      "City": "Бугульма",
      "Lat": 54.5363428,
      "Lon": 52.7895286
    },
    {
      "City": "Бугуруслан",
      "Lat": 53.6522636,
      "Lon": 52.4326166
    },
    {
      "City": "Буденновск",
      "Lat": 44.7814437,
      "Lon": 44.1650859
    },
    {
      "City": "Бузулук",
      "Lat": 52.7881434,
      "Lon": 52.2623757
    },
    {
      "City": "Буинск",
      "Lat": 54.9641106,
      "Lon": 48.2900576
    },
    {
      "City": "Буй",
      "Lat": 58.473445,
      "Lon": 41.5306746
    },
    {
      "City": "Буйнакск",
      "Lat": 42.8213799,
      "Lon": 47.1164452
    },
    {
      "City": "Бутурлиновка",
      "Lat": 50.8313227,
      "Lon": 40.5977541
    },
    {
      "City": "Валдай",
      "Lat": 57.9822906,
      "Lon": 33.2369492
    },
    {
      "City": "Валуйки",
      "Lat": 50.2112799,
      "Lon": 38.0998765
    },
    {
      "City": "Велиж",
      "Lat": 55.6058845,
      "Lon": 31.1857376
    },
    {
      "City": "Великие Луки",
      "Lat": 56.3321847,
      "Lon": 30.550757
    },
    {
      "City": "Великий Новгород",
      "Lat": 58.5214003,
      "Lon": 31.2755051
    },
    {
      "City": "Великий Устюг",
      "Lat": 60.7603243,
      "Lon": 46.3053893
    },
    {
      "City": "Вельск",
      "Lat": 61.0660057,
      "Lon": 42.1032858
    },
    {
      "City": "Венев",
      "Lat": 54.3542431,
      "Lon": 38.2642325
    },
    {
      "City": "Верещагино",
      "Lat": 58.0797908,
      "Lon": 54.6580948
    },
    {
      "City": "Верея",
      "Lat": 55.3674668,
      "Lon": 36.1563083
    },
    {
      "City": "Верхнеуральск",
      "Lat": 53.8760587,
      "Lon": 59.2169071
    },
    {
      "City": "Верхний Тагил",
      "Lat": 57.3762768,
      "Lon": 59.9516521
    },
    {
      "City": "Верхний Уфалей",
      "Lat": 56.0487252,
      "Lon": 60.231963
    },
    {
      "City": "Верхняя Пышма",
      "Lat": 56.9757833,
      "Lon": 60.564885
    },
    {
      "City": "Верхняя Салда",
      "Lat": 58.0466039,
      "Lon": 60.5560397
    },
    {
      "City": "Верхняя Тура",
      "Lat": 58.3643839,
      "Lon": 59.8266854
    },
    {
      "City": "Верхотурье",
      "Lat": 58.8621145,
      "Lon": 60.8104543
    },
    {
      "City": "Верхоянск",
      "Lat": 67.5500865,
      "Lon": 133.3907829
    },
    {
      "City": "Весьегонск",
      "Lat": 58.6584004,
      "Lon": 37.2568605
    },
    {
      "City": "Ветлуга",
      "Lat": 57.8558395,
      "Lon": 45.7762692
    },
    {
      "City": "Видное",
      "Lat": 55.5518323,
      "Lon": 37.7062062
    },
    {
      "City": "Вилюйск",
      "Lat": 63.7517314,
      "Lon": 121.6272754
    },
    {
      "City": "Вилючинск",
      "Lat": 52.930428,
      "Lon": 158.4057276
    },
    {
      "City": "Вихоревка",
      "Lat": 56.1207708,
      "Lon": 101.170332
    },
    {
      "City": "Вичуга",
      "Lat": 57.2044545,
      "Lon": 41.9131192
    },
    {
      "City": "Владивосток",
      "Lat": 43.1163807,
      "Lon": 131.882348
    },
    {
      "City": "Владикавказ",
      "Lat": 43.0205039,
      "Lon": 44.6819383
    },
    {
      "City": "Владимир",
      "Lat": 56.1281561,
      "Lon": 40.4082995
    },
    {
      "City": "Волгоград",
      "Lat": 48.7072005,
      "Lon": 44.5170207
    },
    {
      "City": "Волгодонск",
      "Lat": 47.5165181,
      "Lon": 42.1984531
    },
    {
      "City": "Волгореченск",
      "Lat": 57.4423712,
      "Lon": 41.1593076
    },
    {
      "City": "Волжск",
      "Lat": 55.8622987,
      "Lon": 48.371553
    },
    {
      "City": "Волжский",
      "Lat": 48.7978483,
      "Lon": 44.7462417
    },
    {
      "City": "Вологда",
      "Lat": 59.2484186,
      "Lon": 39.8356461
    },
    {
      "City": "Володарск",
      "Lat": 56.2168974,
      "Lon": 43.1597623
    },
    {
      "City": "Волоколамск",
      "Lat": 56.0358121,
      "Lon": 35.9585027
    },
    {
      "City": "Волосово",
      "Lat": 59.4445107,
      "Lon": 29.492277
    },
    {
      "City": "Волхов",
      "Lat": 59.9006057,
      "Lon": 32.35212
    },
    {
      "City": "Волчанск",
      "Lat": 59.9350515,
      "Lon": 60.0797964
    },
    {
      "City": "Вольск",
      "Lat": 52.0459932,
      "Lon": 47.3873504
    },
    {
      "City": "Воркута",
      "Lat": 67.4973484,
      "Lon": 64.0611045
    },
    {
      "City": "Воронеж",
      "Lat": 51.6592378,
      "Lon": 39.1968284
    },
    {
      "City": "Ворсма",
      "Lat": 55.9900425,
      "Lon": 43.2719879
    },
    {
      "City": "Воскресенск",
      "Lat": 55.3071305,
      "Lon": 38.7026949
    },
    {
      "City": "Воткинск",
      "Lat": 57.0517641,
      "Lon": 53.9874635
    },
    {
      "City": "Всеволожск",
      "Lat": 60.0190094,
      "Lon": 30.6455834
    },
    {
      "City": "Вуктыл",
      "Lat": 63.8615209,
      "Lon": 57.3165207
    },
    {
      "City": "Выборг",
      "Lat": 60.7130748,
      "Lon": 28.7328813
    },
    {
      "City": "Выкса",
      "Lat": 55.3207103,
      "Lon": 42.1679169
    },
    {
      "City": "Высоковск",
      "Lat": 56.336141,
      "Lon": 36.5251316
    },
    {
      "City": "Высоцк",
      "Lat": 60.6296511,
      "Lon": 28.5709914
    },
    {
      "City": "Вытегра",
      "Lat": 61.0064157,
      "Lon": 36.4495835
    },
    {
      "City": "Вышний Волочек",
      "Lat": 57.5683326,
      "Lon": 34.5402931
    },
    {
      "City": "Вяземский",
      "Lat": 47.5354416,
      "Lon": 134.7553701
    },
    {
      "City": "Вязники",
      "Lat": 56.2976528,
      "Lon": 42.2687311
    },
    {
      "City": "Вязьма",
      "Lat": 55.2115563,
      "Lon": 34.2951196
    },
    {
      "City": "Вятские Поляны",
      "Lat": 56.2286058,
      "Lon": 51.0614666
    },
    {
      "City": "Гаврилов Посад",
      "Lat": 56.5585967,
      "Lon": 40.1228288
    },
    {
      "City": "Гаврилов-Ям",
      "Lat": 57.3091552,
      "Lon": 39.8545157
    },
    {
      "City": "Гагарин",
      "Lat": 55.5526532,
      "Lon": 34.9949049
    },
    {
      "City": "Гаджиево",
      "Lat": 69.2490009,
      "Lon": 33.3152445
    },
    {
      "City": "Гай",
      "Lat": 51.4649138,
      "Lon": 58.4436189
    },
    {
      "City": "Галич",
      "Lat": 58.3826861,
      "Lon": 42.3654563
    },
    {
      "City": "Гатчина",
      "Lat": 59.5650861,
      "Lon": 30.1281859
    },
    {
      "City": "Гвардейск",
      "Lat": 54.6588981,
      "Lon": 21.0500584
    },
    {
      "City": "Гдов",
      "Lat": 58.7432585,
      "Lon": 27.8263328
    },
    {
      "City": "Геленджик",
      "Lat": 44.5631053,
      "Lon": 38.0790184
    },
    {
      "City": "Георгиевск",
      "Lat": 44.1486421,
      "Lon": 43.4739718
    },
    {
      "City": "Глазов",
      "Lat": 58.1359111,
      "Lon": 52.6634998
    },
    {
      "City": "Голицыно",
      "Lat": 55.6189762,
      "Lon": 36.9855559
    },
    {
      "City": "Горбатов",
      "Lat": 56.1307901,
      "Lon": 43.0626829
    },
    {
      "City": "Горно-Алтайск",
      "Lat": 51.9582681,
      "Lon": 85.9602957
    },
    {
      "City": "Горнозаводск",
      "Lat": 58.3743406,
      "Lon": 58.3230329
    },
    {
      "City": "Горняк",
      "Lat": 50.9979032,
      "Lon": 81.4643059
    },
    {
      "City": "Городец",
      "Lat": 56.6447459,
      "Lon": 43.4722975
    },
    {
      "City": "Городище",
      "Lat": 53.2727888,
      "Lon": 45.702731
    },
    {
      "City": "Городовиковск",
      "Lat": 46.0875351,
      "Lon": 41.9354039
    },
    {
      "City": "Гороховец",
      "Lat": 56.2021059,
      "Lon": 42.692517
    },
    {
      "City": "Горячий Ключ",
      "Lat": 44.6343251,
      "Lon": 39.1356421
    },
    {
      "City": "Грайворон",
      "Lat": 50.4862699,
      "Lon": 35.6662957
    },
    {
      "City": "Гремячинск",
      "Lat": 58.5625603,
      "Lon": 57.8520073
    },
    {
      "City": "Грозный",
      "Lat": 43.3179243,
      "Lon": 45.6981102
    },
    {
      "City": "Грязи",
      "Lat": 52.4873931,
      "Lon": 39.9331785
    },
    {
      "City": "Грязовец",
      "Lat": 58.8757657,
      "Lon": 40.248477
    },
    {
      "City": "Губаха",
      "Lat": 58.837024,
      "Lon": 57.5544441
    },
    {
      "City": "Губкин",
      "Lat": 51.2836362,
      "Lon": 37.5347608
    },
    {
      "City": "Губкинский",
      "Lat": 64.4456575,
      "Lon": 76.4714559
    },
    {
      "City": "Гудермес",
      "Lat": 43.3519164,
      "Lon": 46.1036052
    },
    {
      "City": "Гуково",
      "Lat": 48.0449422,
      "Lon": 39.9484635
    },
    {
      "City": "Гулькевичи",
      "Lat": 45.3605769,
      "Lon": 40.6918484
    },
    {
      "City": "Гурьевск",
      "Lat": 54.2860005,
      "Lon": 85.947723
    },
    {
      "City": "Гурьевск",
      "Lat": 54.7705368,
      "Lon": 20.6039109
    },
    {
      "City": "Гусев",
      "Lat": 54.5915477,
      "Lon": 22.1944114
    },
    {
      "City": "Гусиноозерск",
      "Lat": 51.2865751,
      "Lon": 106.5230732
    },
    {
      "City": "Гусь-Хрустальный",
      "Lat": 55.6198065,
      "Lon": 40.6578769
    },
    {
      "City": "Давлеканово",
      "Lat": 54.2227617,
      "Lon": 55.0313419
    },
    {
      "City": "Дагестанские Огни",
      "Lat": 42.1151021,
      "Lon": 48.1939983
    },
    {
      "City": "Далматово",
      "Lat": 56.2621393,
      "Lon": 62.9387378
    },
    {
      "City": "Дальнегорск",
      "Lat": 44.5539909,
      "Lon": 135.5662536
    },
    {
      "City": "Дальнереченск",
      "Lat": 45.9307882,
      "Lon": 133.7316542
    },
    {
      "City": "Данилов",
      "Lat": 58.1859542,
      "Lon": 40.1796765
    },
    {
      "City": "Данков",
      "Lat": 53.25769,
      "Lon": 39.1457625
    },
    {
      "City": "Дегтярск",
      "Lat": 56.7048199,
      "Lon": 60.0792227
    },
    {
      "City": "Дедовск",
      "Lat": 55.8704718,
      "Lon": 37.1244724
    },
    {
      "City": "Демидов",
      "Lat": 55.2682611,
      "Lon": 31.5062078
    },
    {
      "City": "Дербент",
      "Lat": 42.058935,
      "Lon": 48.2908653
    },
    {
      "City": "Десногорск",
      "Lat": 54.1465117,
      "Lon": 33.2834063
    },
    {
      "City": "Джанкой",
      "Lat": 45.7092436,
      "Lon": 34.388332
    },
    {
      "City": "Дзержинск",
      "Lat": 56.2376438,
      "Lon": 43.4599363
    },
    {
      "City": "Дзержинский",
      "Lat": 55.6241079,
      "Lon": 37.8440691
    },
    {
      "City": "Дивногорск",
      "Lat": 55.9577868,
      "Lon": 92.380085
    },
    {
      "City": "Дигора",
      "Lat": 43.1567386,
      "Lon": 44.1551132
    },
    {
      "City": "Димитровград",
      "Lat": 54.2168446,
      "Lon": 49.6261645
    },
    {
      "City": "Дмитриев",
      "Lat": 52.1269291,
      "Lon": 35.0739504
    },
    {
      "City": "Дмитров",
      "Lat": 56.3477176,
      "Lon": 37.5267184
    },
    {
      "City": "Дмитровск",
      "Lat": 52.5053481,
      "Lon": 35.141535
    },
    {
      "City": "Дно",
      "Lat": 57.8269802,
      "Lon": 29.9629569
    },
    {
      "City": "Добрянка",
      "Lat": 58.4696353,
      "Lon": 56.4131294
    },
    {
      "City": "Долгопрудный",
      "Lat": 55.9384901,
      "Lon": 37.5100527
    },
    {
      "City": "Долинск",
      "Lat": 47.3255903,
      "Lon": 142.7945985
    },
    {
      "City": "Домодедово",
      "Lat": 55.4363901,
      "Lon": 37.7666263
    },
    {
      "City": "Донецк",
      "Lat": 48.3350928,
      "Lon": 39.9460654
    },
    {
      "City": "Донской",
      "Lat": 53.9679582,
      "Lon": 38.3372104
    },
    {
      "City": "Дорогобуж",
      "Lat": 54.9137794,
      "Lon": 33.3024596
    },
    {
      "City": "Дрезна",
      "Lat": 55.7442991,
      "Lon": 38.8499228
    },
    {
      "City": "Дубна",
      "Lat": 56.7417949,
      "Lon": 37.1757163
    },
    {
      "City": "Дубовка",
      "Lat": 49.0555342,
      "Lon": 44.8270813
    },
    {
      "City": "Дудинка",
      "Lat": 69.4031339,
      "Lon": 86.1908135
    },
    {
      "City": "Духовщина",
      "Lat": 55.1950509,
      "Lon": 32.4012351
    },
    {
      "City": "Дюртюли",
      "Lat": 55.4848047,
      "Lon": 54.8524875
    },
    {
      "City": "Дятьково",
      "Lat": 53.5958283,
      "Lon": 34.355092
    },
    {
      "City": "Евпатория",
      "Lat": 45.1904322,
      "Lon": 33.3667685
    },
    {
      "City": "Егорьевск",
      "Lat": 55.3831326,
      "Lon": 39.0358236
    },
    {
      "City": "Ейск",
      "Lat": 46.7114611,
      "Lon": 38.2764915
    },
    {
      "City": "Екатеринбург",
      "Lat": 56.8386326,
      "Lon": 60.6054887
    },
    {
      "City": "Елабуга",
      "Lat": 55.7566727,
      "Lon": 52.0544438
    },
    {
      "City": "Елец",
      "Lat": 52.6151738,
      "Lon": 38.5289121
    },
    {
      "City": "Елизово",
      "Lat": 53.1829573,
      "Lon": 158.3882833
    },
    {
      "City": "Ельня",
      "Lat": 54.5836832,
      "Lon": 33.1749566
    },
    {
      "City": "Еманжелинск",
      "Lat": 54.7554084,
      "Lon": 61.3243985
    },
    {
      "City": "Емва",
      "Lat": 62.5965314,
      "Lon": 50.8731889
    },
    {
      "City": "Енисейск",
      "Lat": 58.4485234,
      "Lon": 92.165237
    },
    {
      "City": "Ермолино",
      "Lat": 55.1972714,
      "Lon": 36.5951966
    },
    {
      "City": "Ершов",
      "Lat": 51.3508407,
      "Lon": 48.2763313
    },
    {
      "City": "Ессентуки",
      "Lat": 44.044461,
      "Lon": 42.8589078
    },
    {
      "City": "Ефремов",
      "Lat": 53.1465725,
      "Lon": 38.0922412
    },
    {
      "City": "Железноводск",
      "Lat": 44.1320689,
      "Lon": 43.0306475
    },
    {
      "City": "Железногорск",
      "Lat": 52.3378753,
      "Lon": 35.3516834
    },
    {
      "City": "Железногорск",
      "Lat": 56.2529346,
      "Lon": 93.532167
    },
    {
      "City": "Железногорск-Илимский",
      "Lat": 56.5847382,
      "Lon": 104.1141747
    },
    {
      "City": "Жердевка",
      "Lat": 51.8421783,
      "Lon": 41.4617407
    },
    {
      "City": "Жигулевск",
      "Lat": 53.4011545,
      "Lon": 49.494529
    },
    {
      "City": "Жиздра",
      "Lat": 53.7522384,
      "Lon": 34.7386719
    },
    {
      "City": "Жирновск",
      "Lat": 50.9767561,
      "Lon": 44.7857694
    },
    {
      "City": "Жуков",
      "Lat": 55.0301386,
      "Lon": 36.7393279
    },
    {
      "City": "Жуковка",
      "Lat": 53.5341219,
      "Lon": 33.7302166
    },
    {
      "City": "Жуковский",
      "Lat": 55.5998408,
      "Lon": 38.1224185
    },
    {
      "City": "Завитинск",
      "Lat": 50.1064678,
      "Lon": 129.4392897
    },
    {
      "City": "Заводоуковск",
      "Lat": 56.5012193,
      "Lon": 66.5505094
    },
    {
      "City": "Заволжск",
      "Lat": 57.4916546,
      "Lon": 42.1374455
    },
    {
      "City": "Заволжье",
      "Lat": 56.6404237,
      "Lon": 43.3871565
    },
    {
      "City": "Задонск",
      "Lat": 52.4004611,
      "Lon": 38.9205772
    },
    {
      "City": "Заинск",
      "Lat": 55.2988854,
      "Lon": 52.0063634
    },
    {
      "City": "Закаменск",
      "Lat": 50.3726774,
      "Lon": 103.2867452
    },
    {
      "City": "Заозерный",
      "Lat": 55.9617268,
      "Lon": 94.7091037
    },
    {
      "City": "Заозерск",
      "Lat": 69.4003895,
      "Lon": 32.4502225
    },
    {
      "City": "Западная Двина",
      "Lat": 56.2568002,
      "Lon": 32.0805972
    },
    {
      "City": "Заполярный",
      "Lat": 69.413232,
      "Lon": 30.7985332
    },
    {
      "City": "Зарайск",
      "Lat": 54.7625993,
      "Lon": 38.8851485
    },
    {
      "City": "Заречный",
      "Lat": 53.1961009,
      "Lon": 45.1691502
    },
    {
      "City": "Заречный",
      "Lat": 56.8103345,
      "Lon": 61.3380592
    },
    {
      "City": "Заринск",
      "Lat": 53.7063495,
      "Lon": 84.9314703
    },
    {
      "City": "Звенигово",
      "Lat": 55.9739374,
      "Lon": 48.0170276
    },
    {
      "City": "Звенигород",
      "Lat": 55.7296168,
      "Lon": 36.8552843
    },
    {
      "City": "Зверево",
      "Lat": 48.043451,
      "Lon": 40.1264948
    },
    {
      "City": "Зеленогорск",
      "Lat": 56.1133001,
      "Lon": 94.5888736
    },
    {
      "City": "Зеленоградск",
      "Lat": 54.9600226,
      "Lon": 20.4753274
    },
    {
      "City": "Зеленодольск",
      "Lat": 55.8466751,
      "Lon": 48.5010882
    },
    {
      "City": "Зеленокумск",
      "Lat": 44.403359,
      "Lon": 43.8841326
    },
    {
      "City": "Зерноград",
      "Lat": 46.8494991,
      "Lon": 40.312765
    },
    {
      "City": "Зея",
      "Lat": 53.7339151,
      "Lon": 127.2658079
    },
    {
      "City": "Зима",
      "Lat": 53.9206865,
      "Lon": 102.0492066
    },
    {
      "City": "Златоуст",
      "Lat": 55.1715695,
      "Lon": 59.6726264
    },
    {
      "City": "Злынка",
      "Lat": 52.4265906,
      "Lon": 31.7360386
    },
    {
      "City": "Змеиногорск",
      "Lat": 51.1580235,
      "Lon": 82.1872476
    },
    {
      "City": "Знаменск",
      "Lat": 48.5865618,
      "Lon": 45.7367908
    },
    {
      "City": "Зубцов",
      "Lat": 56.1760709,
      "Lon": 34.5825504
    },
    {
      "City": "Зуевка",
      "Lat": 58.4031674,
      "Lon": 51.1330787
    },
    {
      "City": "Ивангород",
      "Lat": 59.3765845,
      "Lon": 28.2230504
    },
    {
      "City": "Иваново",
      "Lat": 56.9994677,
      "Lon": 40.9728231
    },
    {
      "City": "Ивантеевка",
      "Lat": 55.9742303,
      "Lon": 37.9208755
    },
    {
      "City": "Ивдель",
      "Lat": 60.6944353,
      "Lon": 60.4244661
    },
    {
      "City": "Игарка",
      "Lat": 67.4667947,
      "Lon": 86.5814287
    },
    {
      "City": "Ижевск",
      "Lat": 56.8527444,
      "Lon": 53.2113961
    },
    {
      "City": "Избербаш",
      "Lat": 42.565098,
      "Lon": 47.871002
    },
    {
      "City": "Изобильный",
      "Lat": 45.3684342,
      "Lon": 41.7086448
    },
    {
      "City": "Иланский",
      "Lat": 56.2374163,
      "Lon": 96.0672656
    },
    {
      "City": "Инза",
      "Lat": 53.8550467,
      "Lon": 46.3532786
    },
    {
      "City": "Инкерман",
      "Lat": 44.6135153,
      "Lon": 33.6100739
    },
    {
      "City": "Инсар",
      "Lat": 53.8770384,
      "Lon": 44.3696866
    },
    {
      "City": "Инта",
      "Lat": 66.0368196,
      "Lon": 60.1154612
    },
    {
      "City": "Ипатово",
      "Lat": 45.7181897,
      "Lon": 42.8969695
    },
    {
      "City": "Ирбит",
      "Lat": 57.6838406,
      "Lon": 63.0576639
    },
    {
      "City": "Иркутск",
      "Lat": 52.2863513,
      "Lon": 104.280655
    },
    {
      "City": "Исилькуль",
      "Lat": 54.9096156,
      "Lon": 71.2816107
    },
    {
      "City": "Искитим",
      "Lat": 54.6266869,
      "Lon": 83.2951444
    },
    {
      "City": "Истра",
      "Lat": 55.9061087,
      "Lon": 36.8600854
    },
    {
      "City": "Ишим",
      "Lat": 56.0952037,
      "Lon": 69.4643292
    },
    {
      "City": "Ишимбай",
      "Lat": 53.4546314,
      "Lon": 56.043874
    },
    {
      "City": "Йошкар-Ола",
      "Lat": 56.6343763,
      "Lon": 47.8998445
    },
    {
      "City": "Кадников",
      "Lat": 59.5037947,
      "Lon": 40.3440473
    },
    {
      "City": "Казань",
      "Lat": 55.7943877,
      "Lon": 49.1115312
    },
    {
      "City": "Калач",
      "Lat": 50.4241213,
      "Lon": 41.0162858
    },
    {
      "City": "Калачинск",
      "Lat": 55.0598547,
      "Lon": 74.5655075
    },
    {
      "City": "Калач-на-Дону",
      "Lat": 48.6887569,
      "Lon": 43.5306866
    },
    {
      "City": "Калининград",
      "Lat": 54.7073218,
      "Lon": 20.5072458
    },
    {
      "City": "Калининск",
      "Lat": 51.4992917,
      "Lon": 44.4710177
    },
    {
      "City": "Калтан",
      "Lat": 53.5210461,
      "Lon": 87.2772143
    },
    {
      "City": "Калуга",
      "Lat": 54.5060439,
      "Lon": 36.2515933
    },
    {
      "City": "Калязин",
      "Lat": 57.2579471,
      "Lon": 37.7821253
    },
    {
      "City": "Камбарка",
      "Lat": 56.2659745,
      "Lon": 54.1934153
    },
    {
      "City": "Каменка",
      "Lat": 53.1855474,
      "Lon": 44.0468501
    },
    {
      "City": "Каменногорск",
      "Lat": 60.9508768,
      "Lon": 29.1308061
    },
    {
      "City": "Каменск-Уральский",
      "Lat": 56.4149095,
      "Lon": 61.9189837
    },
    {
      "City": "Каменск-Шахтинский",
      "Lat": 48.3204412,
      "Lon": 40.268874
    },
    {
      "City": "Камень-на-Оби",
      "Lat": 53.7915454,
      "Lon": 81.3545173
    },
    {
      "City": "Камешково",
      "Lat": 56.3488712,
      "Lon": 40.9955682
    },
    {
      "City": "Камызяк",
      "Lat": 46.1105429,
      "Lon": 48.0732724
    },
    {
      "City": "Камышин",
      "Lat": 50.0651261,
      "Lon": 45.3843816
    },
    {
      "City": "Камышлов",
      "Lat": 56.8465469,
      "Lon": 62.7120432
    },
    {
      "City": "Канаш",
      "Lat": 55.5069543,
      "Lon": 47.4917734
    },
    {
      "City": "Кандалакша",
      "Lat": 67.1567298,
      "Lon": 32.4142303
    },
    {
      "City": "Канск",
      "Lat": 56.2049776,
      "Lon": 95.7051246
    },
    {
      "City": "Карабаново",
      "Lat": 56.3133447,
      "Lon": 38.7034267
    },
    {
      "City": "Карабаш",
      "Lat": 55.4852076,
      "Lon": 60.2358959
    },
    {
      "City": "Карабулак",
      "Lat": 43.3054762,
      "Lon": 44.9094521
    },
    {
      "City": "Карасук",
      "Lat": 53.7343772,
      "Lon": 78.042457
    },
    {
      "City": "Карачаевск",
      "Lat": 43.773197,
      "Lon": 41.9143726
    },
    {
      "City": "Карачев",
      "Lat": 53.1297194,
      "Lon": 34.9887859
    },
    {
      "City": "Каргат",
      "Lat": 55.1943829,
      "Lon": 80.2831324
    },
    {
      "City": "Каргополь",
      "Lat": 61.5008762,
      "Lon": 38.9636415
    },
    {
      "City": "Карпинск",
      "Lat": 59.7664444,
      "Lon": 60.0011798
    },
    {
      "City": "Карталы",
      "Lat": 53.0536101,
      "Lon": 60.647712
    },
    {
      "City": "Касимов",
      "Lat": 54.9373788,
      "Lon": 41.3912912
    },
    {
      "City": "Касли",
      "Lat": 55.8868045,
      "Lon": 60.7422529
    },
    {
      "City": "Каспийск",
      "Lat": 42.8916599,
      "Lon": 47.6366674
    },
    {
      "City": "Катав-Ивановск",
      "Lat": 54.7520187,
      "Lon": 58.1983706
    },
    {
      "City": "Катайск",
      "Lat": 56.2908118,
      "Lon": 62.5800669
    },
    {
      "City": "Качканар",
      "Lat": 58.7051759,
      "Lon": 59.4840198
    },
    {
      "City": "Кашин",
      "Lat": 57.3600486,
      "Lon": 37.6118674
    },
    {
      "City": "Кашира",
      "Lat": 54.8534263,
      "Lon": 38.1903818
    },
    {
      "City": "Кедровый",
      "Lat": 57.5618465,
      "Lon": 79.5678914
    },
    {
      "City": "Кемерово",
      "Lat": 55.3909721,
      "Lon": 86.0467864
    },
    {
      "City": "Кемь",
      "Lat": 64.9543657,
      "Lon": 34.5948547
    },
    {
      "City": "Керчь",
      "Lat": 45.3561128,
      "Lon": 36.4674285
    },
    {
      "City": "Кизел",
      "Lat": 59.0511764,
      "Lon": 57.6471214
    },
    {
      "City": "Кизилюрт",
      "Lat": 43.2039094,
      "Lon": 46.8729311
    },
    {
      "City": "Кизляр",
      "Lat": 43.8483915,
      "Lon": 46.7232828
    },
    {
      "City": "Кимовск",
      "Lat": 53.9698378,
      "Lon": 38.5380267
    },
    {
      "City": "Кимры",
      "Lat": 56.873359,
      "Lon": 37.3557064
    },
    {
      "City": "Кингисепп",
      "Lat": 59.3739407,
      "Lon": 28.6112981
    },
    {
      "City": "Кинель",
      "Lat": 53.2209985,
      "Lon": 50.6343039
    },
    {
      "City": "Кинешма",
      "Lat": 57.4425441,
      "Lon": 42.1690039
    },
    {
      "City": "Киреевск",
      "Lat": 53.9321173,
      "Lon": 37.9220791
    },
    {
      "City": "Киренск",
      "Lat": 57.7757126,
      "Lon": 108.1107766
    },
    {
      "City": "Киржач",
      "Lat": 56.1485263,
      "Lon": 38.8635035
    },
    {
      "City": "Кириллов",
      "Lat": 59.8590353,
      "Lon": 38.3749854
    },
    {
      "City": "Кириши",
      "Lat": 59.4742626,
      "Lon": 32.0625536
    },
    {
      "City": "Киров",
      "Lat": 58.6035313,
      "Lon": 49.6679219
    },
    {
      "City": "Киров",
      "Lat": 54.0790823,
      "Lon": 34.3077508
    },
    {
      "City": "Кировград",
      "Lat": 57.4298451,
      "Lon": 60.0623588
    },
    {
      "City": "Кирово-Чепецк",
      "Lat": 58.5559921,
      "Lon": 50.0317608
    },
    {
      "City": "Кировск",
      "Lat": 67.6150979,
      "Lon": 33.6637196
    },
    {
      "City": "Кировск",
      "Lat": 59.875371,
      "Lon": 30.9815205
    },
    {
      "City": "Кирс",
      "Lat": 59.3400586,
      "Lon": 52.2415895
    },
    {
      "City": "Кирсанов",
      "Lat": 52.650594,
      "Lon": 42.7284872
    },
    {
      "City": "Киселевск",
      "Lat": 54.0060382,
      "Lon": 86.6367387
    },
    {
      "City": "Кисловодск",
      "Lat": 43.905235,
      "Lon": 42.7167187
    },
    {
      "City": "Клин",
      "Lat": 56.3424886,
      "Lon": 36.7240912
    },
    {
      "City": "Клинцы",
      "Lat": 52.7529052,
      "Lon": 32.2339161
    },
    {
      "City": "Княгинино",
      "Lat": 55.8205157,
      "Lon": 45.0322947
    },
    {
      "City": "Ковдор",
      "Lat": 67.5661466,
      "Lon": 30.4742082
    },
    {
      "City": "Ковров",
      "Lat": 56.3553895,
      "Lon": 41.3169568
    },
    {
      "City": "Ковылкино",
      "Lat": 54.0391464,
      "Lon": 43.9191229
    },
    {
      "City": "Когалым",
      "Lat": 62.2638914,
      "Lon": 74.4828687
    },
    {
      "City": "Кодинск",
      "Lat": 58.6033961,
      "Lon": 99.1797563
    },
    {
      "City": "Козельск",
      "Lat": 54.0348417,
      "Lon": 35.7807136
    },
    {
      "City": "Козловка",
      "Lat": 55.8406526,
      "Lon": 48.2579372
    },
    {
      "City": "Козьмодемьянск",
      "Lat": 56.333346,
      "Lon": 46.5466282
    },
    {
      "City": "Кола",
      "Lat": 68.8785079,
      "Lon": 33.0262014
    },
    {
      "City": "Кологрив",
      "Lat": 58.826988,
      "Lon": 44.3185323
    },
    {
      "City": "Коломна",
      "Lat": 55.1027797,
      "Lon": 38.7531734
    },
    {
      "City": "Колпашево",
      "Lat": 58.3114716,
      "Lon": 82.9027528
    },
    {
      "City": "Кольчугино",
      "Lat": 56.3327616,
      "Lon": 39.391201
    },
    {
      "City": "Коммунар",
      "Lat": 59.6215929,
      "Lon": 30.393466
    },
    {
      "City": "Комсомольск",
      "Lat": 57.0273907,
      "Lon": 40.3775952
    },
    {
      "City": "Комсомольск-на-Амуре",
      "Lat": 50.550011,
      "Lon": 137.0079286
    },
    {
      "City": "Конаково",
      "Lat": 56.7275533,
      "Lon": 36.8011699
    },
    {
      "City": "Кондопога",
      "Lat": 62.2059866,
      "Lon": 34.2681778
    },
    {
      "City": "Кондрово",
      "Lat": 54.796051,
      "Lon": 35.9276099
    },
    {
      "City": "Константиновск",
      "Lat": 47.5773456,
      "Lon": 41.0967362
    },
    {
      "City": "Копейск",
      "Lat": 55.1167545,
      "Lon": 61.6180809
    },
    {
      "City": "Кораблино",
      "Lat": 53.9245422,
      "Lon": 40.0227867
    },
    {
      "City": "Кореновск",
      "Lat": 45.4640868,
      "Lon": 39.4590178
    },
    {
      "City": "Коркино",
      "Lat": 54.8903023,
      "Lon": 61.4034541
    },
    {
      "City": "Королев",
      "Lat": 55.9162558,
      "Lon": 37.8545224
    },
    {
      "City": "Короча",
      "Lat": 50.8130123,
      "Lon": 37.1896543
    },
    {
      "City": "Корсаков",
      "Lat": 46.6323995,
      "Lon": 142.7994094
    },
    {
      "City": "Коряжма",
      "Lat": 61.2885993,
      "Lon": 47.1002315
    },
    {
      "City": "Костерево",
      "Lat": 55.9336424,
      "Lon": 39.624822
    },
    {
      "City": "Костомукша",
      "Lat": 64.5889946,
      "Lon": 30.6015567
    },
    {
      "City": "Кострома",
      "Lat": 57.8029445,
      "Lon": 40.9907282
    },
    {
      "City": "Котельники",
      "Lat": 55.659898,
      "Lon": 37.8632865
    },
    {
      "City": "Котельниково",
      "Lat": 47.6310808,
      "Lon": 43.1331198
    },
    {
      "City": "Котельнич",
      "Lat": 58.3035238,
      "Lon": 48.3474288
    },
    {
      "City": "Котлас",
      "Lat": 61.2529842,
      "Lon": 46.6331915
    },
    {
      "City": "Котово",
      "Lat": 50.3205433,
      "Lon": 44.8031864
    },
    {
      "City": "Котовск",
      "Lat": 52.592393,
      "Lon": 41.5102486
    },
    {
      "City": "Кохма",
      "Lat": 56.9325151,
      "Lon": 41.0933071
    },
    {
      "City": "Красавино",
      "Lat": 60.9613991,
      "Lon": 46.481465
    },
    {
      "City": "Красноармейск",
      "Lat": 51.0268595,
      "Lon": 45.7011086
    },
    {
      "City": "Красноармейск",
      "Lat": 51.0236026,
      "Lon": 45.695141
    },
    {
      "City": "Красновишерск",
      "Lat": 60.3902242,
      "Lon": 57.0537244
    },
    {
      "City": "Красногорск",
      "Lat": 55.8318475,
      "Lon": 37.32942
    },
    {
      "City": "Краснодар",
      "Lat": 45.040235,
      "Lon": 38.9760801
    },
    {
      "City": "Краснозаводск",
      "Lat": 56.4408723,
      "Lon": 38.2320671
    },
    {
      "City": "Краснознаменск",
      "Lat": 55.5978962,
      "Lon": 37.0395137
    },
    {
      "City": "Краснознаменск",
      "Lat": 54.9452612,
      "Lon": 22.4928511
    },
    {
      "City": "Краснокаменск",
      "Lat": 50.092858,
      "Lon": 118.0323407
    },
    {
      "City": "Краснокамск",
      "Lat": 58.0820946,
      "Lon": 55.7479797
    },
    {
      "City": "Красноперекопск",
      "Lat": 45.9537956,
      "Lon": 33.7921523
    },
    {
      "City": "Краснослободск",
      "Lat": 48.7068777,
      "Lon": 44.5631799
    },
    {
      "City": "Краснослободск",
      "Lat": 54.4248634,
      "Lon": 43.7845096
    },
    {
      "City": "Краснотурьинск",
      "Lat": 59.7636934,
      "Lon": 60.1934451
    },
    {
      "City": "Красноуральск",
      "Lat": 58.3486334,
      "Lon": 60.0409011
    },
    {
      "City": "Красноуфимск",
      "Lat": 56.6122864,
      "Lon": 57.7636958
    },
    {
      "City": "Красноярск",
      "Lat": 56.009466,
      "Lon": 92.8524162
    },
    {
      "City": "Красный Кут",
      "Lat": 50.9596867,
      "Lon": 46.9712472
    },
    {
      "City": "Красный Сулин",
      "Lat": 47.8830826,
      "Lon": 40.0781385
    },
    {
      "City": "Красный Холм",
      "Lat": 58.0570193,
      "Lon": 37.1125975
    },
    {
      "City": "Кременки",
      "Lat": 54.8863306,
      "Lon": 37.116878
    },
    {
      "City": "Кропоткин",
      "Lat": 45.4332464,
      "Lon": 40.5727852
    },
    {
      "City": "Крымск",
      "Lat": 44.9344108,
      "Lon": 37.9855314
    },
    {
      "City": "Кстово",
      "Lat": 56.1433353,
      "Lon": 44.1665081
    },
    {
      "City": "Кубинка",
      "Lat": 55.5755679,
      "Lon": 36.6952487
    },
    {
      "City": "Кувандык",
      "Lat": 51.4784845,
      "Lon": 57.3612029
    },
    {
      "City": "Кувшиново",
      "Lat": 57.0263733,
      "Lon": 34.1676435
    },
    {
      "City": "Кудымкар",
      "Lat": 59.0168605,
      "Lon": 54.6573459
    },
    {
      "City": "Кузнецк",
      "Lat": 53.1131686,
      "Lon": 46.6052497
    },
    {
      "City": "Куйбышев",
      "Lat": 55.4684104,
      "Lon": 78.3241042
    },
    {
      "City": "Кулебаки",
      "Lat": 55.429716,
      "Lon": 42.512483
    },
    {
      "City": "Кумертау",
      "Lat": 52.7565537,
      "Lon": 55.7969915
    },
    {
      "City": "Кунгур",
      "Lat": 57.4283217,
      "Lon": 56.9437787
    },
    {
      "City": "Купино",
      "Lat": 54.3660317,
      "Lon": 77.2972969
    },
    {
      "City": "Курган",
      "Lat": 55.4443448,
      "Lon": 65.3161339
    },
    {
      "City": "Курганинск",
      "Lat": 44.8876442,
      "Lon": 40.5913858
    },
    {
      "City": "Курильск",
      "Lat": 45.2271915,
      "Lon": 147.8796713
    },
    {
      "City": "Курлово",
      "Lat": 55.4525994,
      "Lon": 40.6124362
    },
    {
      "City": "Куровское",
      "Lat": 55.5791491,
      "Lon": 38.9208543
    },
    {
      "City": "Курск",
      "Lat": 51.7303391,
      "Lon": 36.1926448
    },
    {
      "City": "Куртамыш",
      "Lat": 54.9368491,
      "Lon": 64.4203009
    },
    {
      "City": "Курчатов",
      "Lat": 51.6605475,
      "Lon": 35.6571711
    },
    {
      "City": "Куса",
      "Lat": 55.3385156,
      "Lon": 59.4386474
    },
    {
      "City": "Кушва",
      "Lat": 58.2825406,
      "Lon": 59.7646113
    },
    {
      "City": "Кызыл",
      "Lat": 51.7191542,
      "Lon": 94.4377234
    },
    {
      "City": "Кыштым",
      "Lat": 55.7060048,
      "Lon": 60.5563271
    },
    {
      "City": "Кяхта",
      "Lat": 50.3466291,
      "Lon": 106.4534938
    },
    {
      "City": "Лабинск",
      "Lat": 44.6353153,
      "Lon": 40.724385
    },
    {
      "City": "Лабытнанги",
      "Lat": 66.6592376,
      "Lon": 66.3882628
    },
    {
      "City": "Лагань",
      "Lat": 45.3929617,
      "Lon": 47.3432943
    },
    {
      "City": "Ладушкин",
      "Lat": 54.5693538,
      "Lon": 20.1691909
    },
    {
      "City": "Лаишево",
      "Lat": 55.4042646,
      "Lon": 49.5498201
    },
    {
      "City": "Лакинск",
      "Lat": 56.0180614,
      "Lon": 39.9564706
    },
    {
      "City": "Лангепас",
      "Lat": 61.2536667,
      "Lon": 75.1807905
    },
    {
      "City": "Лахденпохья",
      "Lat": 61.5189466,
      "Lon": 30.199592
    },
    {
      "City": "Лебедянь",
      "Lat": 53.0156678,
      "Lon": 39.143498
    },
    {
      "City": "Лениногорск",
      "Lat": 54.5966917,
      "Lon": 52.4432118
    },
    {
      "City": "Ленинск",
      "Lat": 48.6936234,
      "Lon": 45.1992835
    },
    {
      "City": "Ленинск-Кузнецкий",
      "Lat": 54.6674092,
      "Lon": 86.1796724
    },
    {
      "City": "Ленск",
      "Lat": 60.7276036,
      "Lon": 114.9549103
    },
    {
      "City": "Лермонтов",
      "Lat": 44.1052526,
      "Lon": 42.9731433
    },
    {
      "City": "Лесной",
      "Lat": 58.634981,
      "Lon": 59.7980528
    },
    {
      "City": "Лесозаводск",
      "Lat": 45.4780192,
      "Lon": 133.4185501
    },
    {
      "City": "Лесосибирск",
      "Lat": 58.2218201,
      "Lon": 92.5036986
    },
    {
      "City": "Ливны",
      "Lat": 52.4285122,
      "Lon": 37.603944
    },
    {
      "City": "Ликино-Дулево",
      "Lat": 55.7078531,
      "Lon": 38.9577103
    },
    {
      "City": "Липецк",
      "Lat": 52.6103027,
      "Lon": 39.5946266
    },
    {
      "City": "Липки",
      "Lat": 53.9418109,
      "Lon": 37.7019452
    },
    {
      "City": "Лиски",
      "Lat": 50.9944734,
      "Lon": 39.518302
    },
    {
      "City": "Лихославль",
      "Lat": 57.122256,
      "Lon": 35.4667886
    },
    {
      "City": "Лобня",
      "Lat": 56.0328745,
      "Lon": 37.4614671
    },
    {
      "City": "Лодейное Поле",
      "Lat": 60.7320564,
      "Lon": 33.5522225
    },
    {
      "City": "Лосино-Петровский",
      "Lat": 55.8714441,
      "Lon": 38.2005377
    },
    {
      "City": "Луга",
      "Lat": 58.7373818,
      "Lon": 29.8466657
    },
    {
      "City": "Луза",
      "Lat": 60.6290781,
      "Lon": 47.2612069
    },
    {
      "City": "Лукоянов",
      "Lat": 55.0327349,
      "Lon": 44.4933829
    },
    {
      "City": "Луховицы",
      "Lat": 54.9651617,
      "Lon": 39.0261346
    },
    {
      "City": "Лысково",
      "Lat": 56.0262298,
      "Lon": 45.0356702
    },
    {
      "City": "Лысьва",
      "Lat": 58.0995987,
      "Lon": 57.8085728
    },
    {
      "City": "Лыткарино",
      "Lat": 55.5778065,
      "Lon": 37.9034952
    },
    {
      "City": "Льгов",
      "Lat": 51.6596935,
      "Lon": 35.2611592
    },
    {
      "City": "Любань",
      "Lat": 59.3492573,
      "Lon": 31.2485276
    },
    {
      "City": "Люберцы",
      "Lat": 55.700416,
      "Lon": 37.9606496
    },
    {
      "City": "Любим",
      "Lat": 58.3619868,
      "Lon": 40.6869581
    },
    {
      "City": "Людиново",
      "Lat": 53.8701406,
      "Lon": 34.4385498
    },
    {
      "City": "Лянтор",
      "Lat": 61.6391639,
      "Lon": 72.1793828
    },
    {
      "City": "Магадан",
      "Lat": 59.5681763,
      "Lon": 150.8085289
    },
    {
      "City": "Магас",
      "Lat": 43.1686967,
      "Lon": 44.8130849
    },
    {
      "City": "Магнитогорск",
      "Lat": 53.4071891,
      "Lon": 58.9791432
    },
    {
      "City": "Майкоп",
      "Lat": 44.6098268,
      "Lon": 40.1006527
    },
    {
      "City": "Майский",
      "Lat": 43.6281779,
      "Lon": 44.0516663
    },
    {
      "City": "Макаров",
      "Lat": 48.6236287,
      "Lon": 142.7803508
    },
    {
      "City": "Макарьев",
      "Lat": 57.8808916,
      "Lon": 43.8014428
    },
    {
      "City": "Макушино",
      "Lat": 55.2154025,
      "Lon": 67.2452558
    },
    {
      "City": "Малая Вишера",
      "Lat": 58.8458076,
      "Lon": 32.2247984
    },
    {
      "City": "Малгобек",
      "Lat": 43.5097009,
      "Lon": 44.5901517
    },
    {
      "City": "Малмыж",
      "Lat": 56.5243722,
      "Lon": 50.6782757
    },
    {
      "City": "Малоархангельск",
      "Lat": 52.4001151,
      "Lon": 36.5037931
    },
    {
      "City": "Малоярославец",
      "Lat": 55.0176756,
      "Lon": 36.4632122
    },
    {
      "City": "Мамадыш",
      "Lat": 55.7149876,
      "Lon": 51.4128614
    },
    {
      "City": "Мамоново",
      "Lat": 54.4645591,
      "Lon": 19.9454114
    },
    {
      "City": "Мантурово",
      "Lat": 58.3264667,
      "Lon": 44.7575036
    },
    {
      "City": "Мариинск",
      "Lat": 56.2127836,
      "Lon": 87.7454392
    },
    {
      "City": "Мариинский Посад",
      "Lat": 56.111968,
      "Lon": 47.7142676
    },
    {
      "City": "Маркс",
      "Lat": 51.7133973,
      "Lon": 46.7400684
    },
    {
      "City": "Махачкала",
      "Lat": 42.9848572,
      "Lon": 47.5046303
    },
    {
      "City": "Мглин",
      "Lat": 53.0600644,
      "Lon": 32.8467217
    },
    {
      "City": "Мегион",
      "Lat": 61.0318946,
      "Lon": 76.1024772
    },
    {
      "City": "Медвежьегорск",
      "Lat": 62.9127678,
      "Lon": 34.4567614
    },
    {
      "City": "Медногорск",
      "Lat": 51.4039421,
      "Lon": 57.5832185
    },
    {
      "City": "Медынь",
      "Lat": 54.9690755,
      "Lon": 35.887313
    },
    {
      "City": "Межгорье",
      "Lat": 54.239683,
      "Lon": 57.96146
    },
    {
      "City": "Междуреченск",
      "Lat": 53.6865695,
      "Lon": 88.0703888
    },
    {
      "City": "Мезень",
      "Lat": 65.8398386,
      "Lon": 44.2531865
    },
    {
      "City": "Меленки",
      "Lat": 55.3387017,
      "Lon": 41.634124
    },
    {
      "City": "Мелеуз",
      "Lat": 52.9590637,
      "Lon": 55.9283483
    },
    {
      "City": "Менделеевск",
      "Lat": 55.8950646,
      "Lon": 52.3144177
    },
    {
      "City": "Мензелинск",
      "Lat": 55.7270908,
      "Lon": 53.1005321
    },
    {
      "City": "Мещовск",
      "Lat": 54.3191127,
      "Lon": 35.2816065
    },
    {
      "City": "Миасс",
      "Lat": 55.0455774,
      "Lon": 60.1077757
    },
    {
      "City": "Микунь",
      "Lat": 62.3580188,
      "Lon": 50.0719738
    },
    {
      "City": "Миллерово",
      "Lat": 48.925821,
      "Lon": 40.3983302
    },
    {
      "City": "Минеральные Воды",
      "Lat": 44.2088942,
      "Lon": 43.1383482
    },
    {
      "City": "Минусинск",
      "Lat": 53.7105509,
      "Lon": 91.6871866
    },
    {
      "City": "Миньяр",
      "Lat": 55.0709601,
      "Lon": 57.5484435
    },
    {
      "City": "Мирный",
      "Lat": 62.5362511,
      "Lon": 113.9668146
    },
    {
      "City": "Мирный",
      "Lat": 62.7644267,
      "Lon": 40.3359976
    },
    {
      "City": "Михайлов",
      "Lat": 54.2296493,
      "Lon": 39.0090857
    },
    {
      "City": "Михайловка",
      "Lat": 50.0708749,
      "Lon": 43.2400847
    },
    {
      "City": "Михайловск",
      "Lat": 45.1296297,
      "Lon": 42.028787
    },
    {
      "City": "Михайловск",
      "Lat": 56.4369736,
      "Lon": 59.113865
    },
    {
      "City": "Мичуринск",
      "Lat": 52.891294,
      "Lon": 40.510475
    },
    {
      "City": "Могоча",
      "Lat": 53.7362465,
      "Lon": 119.7661232
    },
    {
      "City": "Можайск",
      "Lat": 55.5069819,
      "Lon": 36.0240724
    },
    {
      "City": "Можга",
      "Lat": 56.4427219,
      "Lon": 52.2138882
    },
    {
      "City": "Моздок",
      "Lat": 43.7471209,
      "Lon": 44.6571456
    },
    {
      "City": "Мончегорск",
      "Lat": 67.9385206,
      "Lon": 32.9358886
    },
    {
      "City": "Морозовск",
      "Lat": 48.3511724,
      "Lon": 41.8308006
    },
    {
      "City": "Моршанск",
      "Lat": 53.4436469,
      "Lon": 41.8115687
    },
    {
      "City": "Мосальск",
      "Lat": 54.4825589,
      "Lon": 34.987206
    },
    {
      "City": "Муравленко",
      "Lat": 63.794188,
      "Lon": 74.494913
    },
    {
      "City": "Мураши",
      "Lat": 59.3956347,
      "Lon": 48.9637651
    },
    {
      "City": "Мурманск",
      "Lat": 69.0076958,
      "Lon": 33.0686019
    },
    {
      "City": "Муром",
      "Lat": 55.5632276,
      "Lon": 42.023006
    },
    {
      "City": "Мценск",
      "Lat": 53.2790021,
      "Lon": 36.574992
    },
    {
      "City": "Мыски",
      "Lat": 53.7125516,
      "Lon": 87.8056657
    },
    {
      "City": "Мытищи",
      "Lat": 55.9104647,
      "Lon": 37.7363702
    },
    {
      "City": "Мышкин",
      "Lat": 57.7881664,
      "Lon": 38.4542816
    },
    {
      "City": "Набережные Челны",
      "Lat": 55.7436475,
      "Lon": 52.3958739
    },
    {
      "City": "Навашино",
      "Lat": 55.5439105,
      "Lon": 42.1887734
    },
    {
      "City": "Наволоки",
      "Lat": 57.4678426,
      "Lon": 41.9607371
    },
    {
      "City": "Надым",
      "Lat": 65.5377514,
      "Lon": 72.5182746
    },
    {
      "City": "Назарово",
      "Lat": 56.0113176,
      "Lon": 90.4167947
    },
    {
      "City": "Назрань",
      "Lat": 43.2257977,
      "Lon": 44.764685
    },
    {
      "City": "Называевск",
      "Lat": 55.5688811,
      "Lon": 71.3502572
    },
    {
      "City": "Нальчик",
      "Lat": 43.4846312,
      "Lon": 43.6070316
    },
    {
      "City": "Нариманов",
      "Lat": 46.6916597,
      "Lon": 47.8501624
    },
    {
      "City": "Наро-Фоминск",
      "Lat": 55.3802749,
      "Lon": 36.7608038
    },
    {
      "City": "Нарткала",
      "Lat": 43.5577208,
      "Lon": 43.8576411
    },
    {
      "City": "Нарьян-Мар",
      "Lat": 67.6381525,
      "Lon": 53.0069336
    },
    {
      "City": "Находка",
      "Lat": 42.8240404,
      "Lon": 132.8927812
    },
    {
      "City": "Невель",
      "Lat": 56.0201544,
      "Lon": 29.9240505
    },
    {
      "City": "Невельск",
      "Lat": 46.6527314,
      "Lon": 141.8631741
    },
    {
      "City": "Невинномысск",
      "Lat": 44.6227404,
      "Lon": 41.9476147
    },
    {
      "City": "Невьянск",
      "Lat": 57.491233,
      "Lon": 60.2181839
    },
    {
      "City": "Нелидово",
      "Lat": 56.2232417,
      "Lon": 32.7766656
    },
    {
      "City": "Неман",
      "Lat": 55.0315543,
      "Lon": 22.0323961
    },
    {
      "City": "Нерехта",
      "Lat": 57.4543706,
      "Lon": 40.5725438
    },
    {
      "City": "Нерчинск",
      "Lat": 51.9595512,
      "Lon": 116.5854018
    },
    {
      "City": "Нерюнгри",
      "Lat": 56.6600322,
      "Lon": 124.72031
    },
    {
      "City": "Нестеров",
      "Lat": 54.6314454,
      "Lon": 22.5713658
    },
    {
      "City": "Нефтегорск",
      "Lat": 52.797259,
      "Lon": 51.1637126
    },
    {
      "City": "Нефтекамск",
      "Lat": 56.0883075,
      "Lon": 54.2483391
    },
    {
      "City": "Нефтекумск",
      "Lat": 44.7544866,
      "Lon": 44.9865041
    },
    {
      "City": "Нефтеюганск",
      "Lat": 61.0882837,
      "Lon": 72.6164185
    },
    {
      "City": "Нея",
      "Lat": 58.2944499,
      "Lon": 43.8780965
    },
    {
      "City": "Нижневартовск",
      "Lat": 60.9397379,
      "Lon": 76.5696206
    },
    {
      "City": "Нижнекамск",
      "Lat": 55.6311963,
      "Lon": 51.814407
    },
    {
      "City": "Нижнеудинск",
      "Lat": 54.8969105,
      "Lon": 99.0313481
    },
    {
      "City": "Нижние Серги",
      "Lat": 56.6544606,
      "Lon": 59.2952291
    },
    {
      "City": "Нижний Ломов",
      "Lat": 53.5301274,
      "Lon": 43.6729216
    },
    {
      "City": "Нижний Новгород",
      "Lat": 56.3242093,
      "Lon": 44.0053948
    },
    {
      "City": "Нижний Тагил",
      "Lat": 57.9101038,
      "Lon": 59.9813242
    },
    {
      "City": "Нижняя Салда",
      "Lat": 58.0749243,
      "Lon": 60.7026555
    },
    {
      "City": "Нижняя Тура",
      "Lat": 58.6310942,
      "Lon": 59.8521265
    },
    {
      "City": "Николаевск",
      "Lat": 50.0166952,
      "Lon": 45.4733204
    },
    {
      "City": "Николаевск-на-Амуре",
      "Lat": 53.1461943,
      "Lon": 140.7109642
    },
    {
      "City": "Никольск",
      "Lat": 53.7138397,
      "Lon": 46.079962
    },
    {
      "City": "Никольск",
      "Lat": 59.5350162,
      "Lon": 45.4575468
    },
    {
      "City": "Никольское",
      "Lat": 59.7042633,
      "Lon": 30.7874879
    },
    {
      "City": "Новая Ладога",
      "Lat": 60.1100013,
      "Lon": 32.3141446
    },
    {
      "City": "Новая Ляля",
      "Lat": 59.053961,
      "Lon": 60.5945405
    },
    {
      "City": "Новоалександровск",
      "Lat": 45.4933561,
      "Lon": 41.2154482
    },
    {
      "City": "Новоалтайск",
      "Lat": 53.4120811,
      "Lon": 83.9311249
    },
    {
      "City": "Новоаннинский",
      "Lat": 50.5296873,
      "Lon": 42.6666038
    },
    {
      "City": "Нововоронеж",
      "Lat": 51.3092463,
      "Lon": 39.2162865
    },
    {
      "City": "Новодвинск",
      "Lat": 64.4136023,
      "Lon": 40.8208003
    },
    {
      "City": "Новозыбков",
      "Lat": 52.5371426,
      "Lon": 31.9356826
    },
    {
      "City": "Новокубанск",
      "Lat": 45.1038782,
      "Lon": 41.0473679
    },
    {
      "City": "Новокузнецк",
      "Lat": 53.7942757,
      "Lon": 87.2144046
    },
    {
      "City": "Новокуйбышевск",
      "Lat": 53.0995303,
      "Lon": 49.9477662
    },
    {
      "City": "Новомичуринск",
      "Lat": 54.0377979,
      "Lon": 39.7467023
    },
    {
      "City": "Новомосковск",
      "Lat": 54.0109754,
      "Lon": 38.2915652
    },
    {
      "City": "Новопавловск",
      "Lat": 43.9617565,
      "Lon": 43.6342855
    },
    {
      "City": "Новоржев",
      "Lat": 57.0298332,
      "Lon": 29.343333
    },
    {
      "City": "Новороссийск",
      "Lat": 44.7234264,
      "Lon": 37.7687218
    },
    {
      "City": "Новосибирск",
      "Lat": 55.0281016,
      "Lon": 82.9210575
    },
    {
      "City": "Новосиль",
      "Lat": 52.9747225,
      "Lon": 37.0438402
    },
    {
      "City": "Новосокольники",
      "Lat": 56.3407627,
      "Lon": 30.1527712
    },
    {
      "City": "Новотроицк",
      "Lat": 51.1965071,
      "Lon": 58.3017455
    },
    {
      "City": "Новоузенск",
      "Lat": 50.4551744,
      "Lon": 48.1412622
    },
    {
      "City": "Новоульяновск",
      "Lat": 54.1447691,
      "Lon": 48.3911701
    },
    {
      "City": "Новоуральск",
      "Lat": 57.2471507,
      "Lon": 60.095701
    },
    {
      "City": "Новохоперск",
      "Lat": 51.0953461,
      "Lon": 41.6173714
    },
    {
      "City": "Новочебоксарск",
      "Lat": 56.109486,
      "Lon": 47.4791429
    },
    {
      "City": "Новочеркасск",
      "Lat": 47.4119248,
      "Lon": 40.1042066
    },
    {
      "City": "Новошахтинск",
      "Lat": 47.7576522,
      "Lon": 39.9364709
    },
    {
      "City": "Новый Оскол",
      "Lat": 50.7635162,
      "Lon": 37.8774026
    },
    {
      "City": "Новый Уренгой",
      "Lat": 66.0840036,
      "Lon": 76.6810032
    },
    {
      "City": "Ногинск",
      "Lat": 55.8686239,
      "Lon": 38.4621635
    },
    {
      "City": "Нолинск",
      "Lat": 57.5596946,
      "Lon": 49.9357867
    },
    {
      "City": "Норильск",
      "Lat": 69.3490828,
      "Lon": 88.2009965
    },
    {
      "City": "Ноябрьск",
      "Lat": 63.201846,
      "Lon": 75.4509665
    },
    {
      "City": "Нурлат",
      "Lat": 54.4281578,
      "Lon": 50.8050431
    },
    {
      "City": "Нытва",
      "Lat": 57.9337429,
      "Lon": 55.3357261
    },
    {
      "City": "Нюрба",
      "Lat": 63.2828775,
      "Lon": 118.324325
    },
    {
      "City": "Нягань",
      "Lat": 62.1454839,
      "Lon": 65.3944361
    },
    {
      "City": "Нязепетровск",
      "Lat": 56.0537199,
      "Lon": 59.6096791
    },
    {
      "City": "Няндома",
      "Lat": 61.6653735,
      "Lon": 40.2061699
    },
    {
      "City": "Облучье",
      "Lat": 49.0188344,
      "Lon": 131.0539984
    },
    {
      "City": "Обнинск",
      "Lat": 55.0943892,
      "Lon": 36.6121785
    },
    {
      "City": "Обоянь",
      "Lat": 51.212012,
      "Lon": 36.275425
    },
    {
      "City": "Обь",
      "Lat": 54.9945882,
      "Lon": 82.6937925
    },
    {
      "City": "Одинцово",
      "Lat": 55.6789292,
      "Lon": 37.2636389
    },
    {
      "City": "Озерск",
      "Lat": 55.7631922,
      "Lon": 60.7076337
    },
    {
      "City": "Озерск",
      "Lat": 54.4084804,
      "Lon": 22.013508
    },
    {
      "City": "Озеры",
      "Lat": 54.8539944,
      "Lon": 38.55987
    },
    {
      "City": "Октябрьск",
      "Lat": 53.1640886,
      "Lon": 48.6707463
    },
    {
      "City": "Октябрьский",
      "Lat": 54.4815344,
      "Lon": 53.4656611
    },
    {
      "City": "Окуловка",
      "Lat": 58.3908717,
      "Lon": 33.2902474
    },
    {
      "City": "Олекминск",
      "Lat": 60.3758203,
      "Lon": 120.406013
    },
    {
      "City": "Оленегорск",
      "Lat": 68.1422068,
      "Lon": 33.2670094
    },
    {
      "City": "Олонец",
      "Lat": 60.9793604,
      "Lon": 32.9726031
    },
    {
      "City": "Омск",
      "Lat": 54.9848136,
      "Lon": 73.3674638
    },
    {
      "City": "Омутнинск",
      "Lat": 58.6697684,
      "Lon": 52.1893554
    },
    {
      "City": "Онега",
      "Lat": 63.9163966,
      "Lon": 38.0805749
    },
    {
      "City": "Опочка",
      "Lat": 56.7107956,
      "Lon": 28.6717455
    },
    {
      "City": "Орёл",
      "Lat": 52.9672573,
      "Lon": 36.0696479
    },
    {
      "City": "Оренбург",
      "Lat": 51.7875191,
      "Lon": 55.1017379
    },
    {
      "City": "Орехово-Зуево",
      "Lat": 55.8151729,
      "Lon": 38.9870711
    },
    {
      "City": "Орлов",
      "Lat": 58.5389402,
      "Lon": 48.8929268
    },
    {
      "City": "Орск",
      "Lat": 51.2293069,
      "Lon": 58.4751889
    },
    {
      "City": "Оса",
      "Lat": 57.2889992,
      "Lon": 55.4688982
    },
    {
      "City": "Осинники",
      "Lat": 53.5987397,
      "Lon": 87.3369948
    },
    {
      "City": "Осташков",
      "Lat": 57.1457205,
      "Lon": 33.1116707
    },
    {
      "City": "Остров",
      "Lat": 57.3452408,
      "Lon": 28.3437107
    },
    {
      "City": "Островной",
      "Lat": 68.0509133,
      "Lon": 39.5076034
    },
    {
      "City": "Острогожск",
      "Lat": 50.8678083,
      "Lon": 39.0406398
    },
    {
      "City": "Отрадное",
      "Lat": 59.772596,
      "Lon": 30.7988403
    },
    {
      "City": "Отрадный",
      "Lat": 53.3800609,
      "Lon": 51.3438695
    },
    {
      "City": "Оха",
      "Lat": 53.5868238,
      "Lon": 142.941221
    },
    {
      "City": "Оханск",
      "Lat": 57.7178946,
      "Lon": 55.387153
    },
    {
      "City": "Очер",
      "Lat": 57.8851991,
      "Lon": 54.7161756
    },
    {
      "City": "Павлово",
      "Lat": 55.9797995,
      "Lon": 43.0996232
    },
    {
      "City": "Павловск",
      "Lat": 50.4533684,
      "Lon": 40.1369087
    },
    {
      "City": "Павловский Посад",
      "Lat": 55.7806718,
      "Lon": 38.6596047
    },
    {
      "City": "Палласовка",
      "Lat": 50.0501422,
      "Lon": 46.8803355
    },
    {
      "City": "Партизанск",
      "Lat": 43.1279833,
      "Lon": 133.1264754
    },
    {
      "City": "Певек",
      "Lat": 69.7018051,
      "Lon": 170.2999194
    },
    {
      "City": "Пенза",
      "Lat": 53.1753884,
      "Lon": 45.0347408
    },
    {
      "City": "Первомайск",
      "Lat": 54.8676182,
      "Lon": 43.8012829
    },
    {
      "City": "Первоуральск",
      "Lat": 56.9081665,
      "Lon": 59.9429205
    },
    {
      "City": "Перевоз",
      "Lat": 55.596904,
      "Lon": 44.5450268
    },
    {
      "City": "Пересвет",
      "Lat": 56.4158828,
      "Lon": 38.1733567
    },
    {
      "City": "Переславль-Залесский",
      "Lat": 56.7360435,
      "Lon": 38.8543064
    },
    {
      "City": "Пермь",
      "Lat": 58.0103211,
      "Lon": 56.2341778
    },
    {
      "City": "Пестово",
      "Lat": 58.5973944,
      "Lon": 35.8144523
    },
    {
      "City": "Петров Вал",
      "Lat": 50.1380355,
      "Lon": 45.2091455
    },
    {
      "City": "Петровск",
      "Lat": 52.3093782,
      "Lon": 45.3851649
    },
    {
      "City": "Петровск-Забайкальский",
      "Lat": 51.2748381,
      "Lon": 108.8467139
    },
    {
      "City": "Петрозаводск",
      "Lat": 61.78909,
      "Lon": 34.3596263
    },
    {
      "City": "Петропавловск-Камчатский",
      "Lat": 53.0370213,
      "Lon": 158.6559142
    },
    {
      "City": "Петухово",
      "Lat": 55.0649932,
      "Lon": 67.8874369
    },
    {
      "City": "Петушки",
      "Lat": 55.9297657,
      "Lon": 39.4507913
    },
    {
      "City": "Печора",
      "Lat": 65.1485717,
      "Lon": 57.22388
    },
    {
      "City": "Печоры",
      "Lat": 57.8146689,
      "Lon": 27.6222823
    },
    {
      "City": "Пикалево",
      "Lat": 59.5130655,
      "Lon": 34.1773982
    },
    {
      "City": "Пионерский",
      "Lat": 54.9516927,
      "Lon": 20.227697
    },
    {
      "City": "Питкяранта",
      "Lat": 61.5756886,
      "Lon": 31.4641309
    },
    {
      "City": "Плавск",
      "Lat": 53.7095993,
      "Lon": 37.2863144
    },
    {
      "City": "Пласт",
      "Lat": 54.3691832,
      "Lon": 60.8152305
    },
    {
      "City": "Плес",
      "Lat": 57.4605304,
      "Lon": 41.512301
    },
    {
      "City": "Поворино",
      "Lat": 51.1953446,
      "Lon": 42.2472432
    },
    {
      "City": "Подольск",
      "Lat": 55.4389588,
      "Lon": 37.57027
    },
    {
      "City": "Подпорожье",
      "Lat": 60.9127463,
      "Lon": 34.1567832
    },
    {
      "City": "Покачи",
      "Lat": 61.7421977,
      "Lon": 75.5942069
    },
    {
      "City": "Покров",
      "Lat": 55.9167118,
      "Lon": 39.1733641
    },
    {
      "City": "Покровск",
      "Lat": 61.4843538,
      "Lon": 129.1482195
    },
    {
      "City": "Полевской",
      "Lat": 56.4958085,
      "Lon": 60.2366314
    },
    {
      "City": "Полесск",
      "Lat": 54.8626321,
      "Lon": 21.0998148
    },
    {
      "City": "Полысаево",
      "Lat": 54.6053968,
      "Lon": 86.2808803
    },
    {
      "City": "Полярные Зори",
      "Lat": 67.3730192,
      "Lon": 32.497541
    },
    {
      "City": "Полярный",
      "Lat": 69.1988373,
      "Lon": 33.4509985
    },
    {
      "City": "Поронайск",
      "Lat": 49.2387983,
      "Lon": 143.1007104
    },
    {
      "City": "Порхов",
      "Lat": 57.7764223,
      "Lon": 29.5436424
    },
    {
      "City": "Похвистнево",
      "Lat": 53.6498197,
      "Lon": 52.1235517
    },
    {
      "City": "Почеп",
      "Lat": 52.9154724,
      "Lon": 33.4744608
    },
    {
      "City": "Починок",
      "Lat": 54.4063031,
      "Lon": 32.4397914
    },
    {
      "City": "Пошехонье",
      "Lat": 58.506328,
      "Lon": 39.1210034
    },
    {
      "City": "Правдинск",
      "Lat": 54.4430604,
      "Lon": 21.0083638
    },
    {
      "City": "Приволжск",
      "Lat": 57.3807249,
      "Lon": 41.2809239
    },
    {
      "City": "Приморск",
      "Lat": 60.3660787,
      "Lon": 28.6135962
    },
    {
      "City": "Приморск",
      "Lat": 54.7311185,
      "Lon": 19.9983108
    },
    {
      "City": "Приморско-Ахтарск",
      "Lat": 46.0515,
      "Lon": 38.1704654
    },
    {
      "City": "Приозерск",
      "Lat": 61.03313,
      "Lon": 30.15876
    },
    {
      "City": "Прокопьевск",
      "Lat": 53.8604562,
      "Lon": 86.7183428
    },
    {
      "City": "Пролетарск",
      "Lat": 46.7038968,
      "Lon": 41.7274533
    },
    {
      "City": "Протвино",
      "Lat": 54.8706614,
      "Lon": 37.2183307
    },
    {
      "City": "Прохладный",
      "Lat": 43.7589521,
      "Lon": 44.0101936
    },
    {
      "City": "Псков",
      "Lat": 57.819284,
      "Lon": 28.3318188
    },
    {
      "City": "Пугачев",
      "Lat": 52.0158464,
      "Lon": 48.7972652
    },
    {
      "City": "Пудож",
      "Lat": 61.8059147,
      "Lon": 36.5330088
    },
    {
      "City": "Пустошка",
      "Lat": 56.3375131,
      "Lon": 29.3668243
    },
    {
      "City": "Пучеж",
      "Lat": 56.982075,
      "Lon": 43.1683878
    },
    {
      "City": "Пушкино",
      "Lat": 56.0104548,
      "Lon": 37.8471438
    },
    {
      "City": "Пущино",
      "Lat": 54.832521,
      "Lon": 37.6210428
    },
    {
      "City": "Пыталово",
      "Lat": 57.0637109,
      "Lon": 27.9234759
    },
    {
      "City": "Пыть-Ях",
      "Lat": 60.7585769,
      "Lon": 72.8366445
    },
    {
      "City": "Пятигорск",
      "Lat": 44.0411669,
      "Lon": 43.0661091
    },
    {
      "City": "Радужный",
      "Lat": 62.1343067,
      "Lon": 77.4584346
    },
    {
      "City": "Радужный",
      "Lat": 55.9961034,
      "Lon": 40.3323247
    },
    {
      "City": "Райчихинск",
      "Lat": 49.7941882,
      "Lon": 129.4112149
    },
    {
      "City": "Раменское",
      "Lat": 55.549529,
      "Lon": 38.273015
    },
    {
      "City": "Рассказово",
      "Lat": 52.6537517,
      "Lon": 41.8743779
    },
    {
      "City": "Ревда",
      "Lat": 56.79869,
      "Lon": 59.9071464
    },
    {
      "City": "Реж",
      "Lat": 57.3717914,
      "Lon": 61.3833223
    },
    {
      "City": "Реутов",
      "Lat": 55.758236,
      "Lon": 37.8619443
    },
    {
      "City": "Ржев",
      "Lat": 56.2629393,
      "Lon": 34.3291178
    },
    {
      "City": "Родники",
      "Lat": 57.1024137,
      "Lon": 41.7298908
    },
    {
      "City": "Рославль",
      "Lat": 53.9449601,
      "Lon": 32.8479617
    },
    {
      "City": "Россошь",
      "Lat": 50.170089,
      "Lon": 39.6225534
    },
    {
      "City": "Ростов",
      "Lat": 57.2050177,
      "Lon": 39.4378357
    },
    {
      "City": "Ростов-на-Дону",
      "Lat": 47.2224364,
      "Lon": 39.7187866
    },
    {
      "City": "Рошаль",
      "Lat": 55.6632504,
      "Lon": 39.8655434
    },
    {
      "City": "Ртищево",
      "Lat": 52.2616298,
      "Lon": 43.7842399
    },
    {
      "City": "Рубцовск",
      "Lat": 51.5013075,
      "Lon": 81.2077729
    },
    {
      "City": "Рудня",
      "Lat": 54.9441357,
      "Lon": 31.0794758
    },
    {
      "City": "Руза",
      "Lat": 55.7015302,
      "Lon": 36.1960043
    },
    {
      "City": "Рузаевка",
      "Lat": 54.0583238,
      "Lon": 44.949116
    },
    {
      "City": "Рыбинск",
      "Lat": 58.0483802,
      "Lon": 38.858338
    },
    {
      "City": "Рыбное",
      "Lat": 54.7255937,
      "Lon": 39.513438
    },
    {
      "City": "Рыльск",
      "Lat": 51.568165,
      "Lon": 34.6802178
    },
    {
      "City": "Ряжск",
      "Lat": 53.7067718,
      "Lon": 40.0521358
    },
    {
      "City": "Рязань",
      "Lat": 54.625457,
      "Lon": 39.7359992
    },
    {
      "City": "Саки",
      "Lat": 45.1342889,
      "Lon": 33.6032508
    },
    {
      "City": "Салават",
      "Lat": 53.3616311,
      "Lon": 55.9245559
    },
    {
      "City": "Салаир",
      "Lat": 54.2351588,
      "Lon": 85.8029215
    },
    {
      "City": "Салехард",
      "Lat": 66.5493568,
      "Lon": 66.6083994
    },
    {
      "City": "Сальск",
      "Lat": 46.4751689,
      "Lon": 41.5412229
    },
    {
      "City": "Самара",
      "Lat": 53.1951657,
      "Lon": 50.1067691
    },
    {
      "City": "Саранск",
      "Lat": 54.1807601,
      "Lon": 45.1862263
    },
    {
      "City": "Сарапул",
      "Lat": 56.4616117,
      "Lon": 53.8036967
    },
    {
      "City": "Саратов",
      "Lat": 51.530376,
      "Lon": 45.9530257
    },
    {
      "City": "Саров",
      "Lat": 54.9227002,
      "Lon": 43.3447792
    },
    {
      "City": "Сасово",
      "Lat": 54.350807,
      "Lon": 41.9117458
    },
    {
      "City": "Сатка",
      "Lat": 55.0404497,
      "Lon": 59.0288153
    },
    {
      "City": "Сафоново",
      "Lat": 55.1199868,
      "Lon": 33.233799
    },
    {
      "City": "Саяногорск",
      "Lat": 53.1008226,
      "Lon": 91.4121643
    },
    {
      "City": "Саянск",
      "Lat": 54.1107787,
      "Lon": 102.1802563
    },
    {
      "City": "Светлогорск",
      "Lat": 54.9439566,
      "Lon": 20.1514789
    },
    {
      "City": "Светлоград",
      "Lat": 45.3284769,
      "Lon": 42.8566923
    },
    {
      "City": "Светлый",
      "Lat": 54.6774051,
      "Lon": 20.1356625
    },
    {
      "City": "Светогорск",
      "Lat": 61.1112679,
      "Lon": 28.8726666
    },
    {
      "City": "Свирск",
      "Lat": 53.0842576,
      "Lon": 103.3364192
    },
    {
      "City": "Свободный",
      "Lat": 51.361264,
      "Lon": 128.1218995
    },
    {
      "City": "Себеж",
      "Lat": 56.2907663,
      "Lon": 28.4725735
    },
    {
      "City": "Северобайкальск",
      "Lat": 55.6357165,
      "Lon": 109.3362606
    },
    {
      "City": "Северодвинск",
      "Lat": 64.56253,
      "Lon": 39.8182715
    },
    {
      "City": "Северо-Курильск",
      "Lat": 50.6731056,
      "Lon": 156.1280722
    },
    {
      "City": "Североморск",
      "Lat": 69.0765029,
      "Lon": 33.4178354
    },
    {
      "City": "Североуральск",
      "Lat": 60.1533333,
      "Lon": 59.9525274
    },
    {
      "City": "Северск",
      "Lat": 56.6031143,
      "Lon": 84.8809687
    },
    {
      "City": "Севск",
      "Lat": 52.1484215,
      "Lon": 34.4918198
    },
    {
      "City": "Сегежа",
      "Lat": 63.7437211,
      "Lon": 34.3126755
    },
    {
      "City": "Сельцо",
      "Lat": 53.3738801,
      "Lon": 34.1059226
    },
    {
      "City": "Семенов",
      "Lat": 56.788935,
      "Lon": 44.4903571
    },
    {
      "City": "Семикаракорск",
      "Lat": 47.5177981,
      "Lon": 40.811585
    },
    {
      "City": "Семилуки",
      "Lat": 51.6951846,
      "Lon": 39.0189797
    },
    {
      "City": "Сенгилей",
      "Lat": 53.9590553,
      "Lon": 48.7767869
    },
    {
      "City": "Серафимович",
      "Lat": 49.566286,
      "Lon": 42.7360013
    },
    {
      "City": "Сергач",
      "Lat": 55.5200364,
      "Lon": 45.4813193
    },
    {
      "City": "Сергиев Посад",
      "Lat": 56.3063411,
      "Lon": 38.1502568
    },
    {
      "City": "Сердобск",
      "Lat": 52.4697532,
      "Lon": 44.2122688
    },
    {
      "City": "Серов",
      "Lat": 59.6048651,
      "Lon": 60.5752136
    },
    {
      "City": "Серпухов",
      "Lat": 54.9225396,
      "Lon": 37.4032682
    },
    {
      "City": "Сертолово",
      "Lat": 60.14458,
      "Lon": 30.2094595
    },
    {
      "City": "Сибай",
      "Lat": 52.7205811,
      "Lon": 58.6663303
    },
    {
      "City": "Сим",
      "Lat": 54.9906584,
      "Lon": 57.6899045
    },
    {
      "City": "Симферополь",
      "Lat": 44.9482645,
      "Lon": 34.100117
    },
    {
      "City": "Сковородино",
      "Lat": 53.9871004,
      "Lon": 123.943729
    },
    {
      "City": "Скопин",
      "Lat": 53.8236028,
      "Lon": 39.5493286
    },
    {
      "City": "Славгород",
      "Lat": 52.9993053,
      "Lon": 78.6459674
    },
    {
      "City": "Славск",
      "Lat": 55.0451054,
      "Lon": 21.6742294
    },
    {
      "City": "Славянск-на-Кубани",
      "Lat": 45.2605079,
      "Lon": 38.1260725
    },
    {
      "City": "Сланцы",
      "Lat": 59.1178693,
      "Lon": 28.088106
    },
    {
      "City": "Слободской",
      "Lat": 58.7311934,
      "Lon": 50.1670091
    },
    {
      "City": "Слюдянка",
      "Lat": 51.6562679,
      "Lon": 103.7186877
    },
    {
      "City": "Смоленск",
      "Lat": 54.7867168,
      "Lon": 31.8153366
    },
    {
      "City": "Снежинск",
      "Lat": 56.085232,
      "Lon": 60.7324989
    },
    {
      "City": "Снежногорск",
      "Lat": 69.1921469,
      "Lon": 33.2382821
    },
    {
      "City": "Собинка",
      "Lat": 55.993798,
      "Lon": 40.0180034
    },
    {
      "City": "Советск",
      "Lat": 55.0810474,
      "Lon": 21.8886272
    },
    {
      "City": "Советск",
      "Lat": 57.5841434,
      "Lon": 48.9589228
    },
    {
      "City": "Советск",
      "Lat": 53.9337099,
      "Lon": 37.6315517
    },
    {
      "City": "Советская Гавань",
      "Lat": 48.9664554,
      "Lon": 140.2852223
    },
    {
      "City": "Советский",
      "Lat": 61.3706695,
      "Lon": 63.566863
    },
    {
      "City": "Сокол",
      "Lat": 59.4759156,
      "Lon": 40.1114414
    },
    {
      "City": "Солигалич",
      "Lat": 59.0786729,
      "Lon": 42.2877245
    },
    {
      "City": "Соликамск",
      "Lat": 59.6483518,
      "Lon": 56.7710358
    },
    {
      "City": "Солнечногорск",
      "Lat": 56.2148655,
      "Lon": 37.0967653
    },
    {
      "City": "Сольвычегодск",
      "Lat": 61.3318091,
      "Lon": 46.920351
    },
    {
      "City": "Соль-Илецк",
      "Lat": 51.1634976,
      "Lon": 54.9895391
    },
    {
      "City": "Сольцы",
      "Lat": 58.1201693,
      "Lon": 30.309285
    },
    {
      "City": "Сорочинск",
      "Lat": 52.4265081,
      "Lon": 53.1542123
    },
    {
      "City": "Сорск",
      "Lat": 54.0001451,
      "Lon": 90.2595674
    },
    {
      "City": "Сортавала",
      "Lat": 61.7032216,
      "Lon": 30.6917021
    },
    {
      "City": "Сосенский",
      "Lat": 54.056525,
      "Lon": 35.9621458
    },
    {
      "City": "Сосновка",
      "Lat": 56.2533149,
      "Lon": 51.2833412
    },
    {
      "City": "Сосновоборск",
      "Lat": 56.1202088,
      "Lon": 93.3353411
    },
    {
      "City": "Сосновый Бор",
      "Lat": 59.8772921,
      "Lon": 29.1290866
    },
    {
      "City": "Сосногорск",
      "Lat": 63.5990137,
      "Lon": 53.8762792
    },
    {
      "City": "Сочи",
      "Lat": 43.5855829,
      "Lon": 39.7231419
    },
    {
      "City": "Спас-Деменск",
      "Lat": 54.4099201,
      "Lon": 34.0190263
    },
    {
      "City": "Спас-Клепики",
      "Lat": 55.1291472,
      "Lon": 40.1745036
    },
    {
      "City": "Спасск",
      "Lat": 53.927163,
      "Lon": 43.1860475
    },
    {
      "City": "Спасск-Дальний",
      "Lat": 44.5900929,
      "Lon": 132.8157564
    },
    {
      "City": "Спасск-Рязанский",
      "Lat": 54.4071497,
      "Lon": 40.3764367
    },
    {
      "City": "Среднеколымск",
      "Lat": 67.4581664,
      "Lon": 153.7069511
    },
    {
      "City": "Среднеуральск",
      "Lat": 56.991883,
      "Lon": 60.4771953
    },
    {
      "City": "Сретенск",
      "Lat": 52.2462356,
      "Lon": 117.7116971
    },
    {
      "City": "Ставрополь",
      "Lat": 45.0445439,
      "Lon": 41.9690168
    },
    {
      "City": "Старая Купавна",
      "Lat": 55.8038411,
      "Lon": 38.1426144
    },
    {
      "City": "Старая Русса",
      "Lat": 57.9906873,
      "Lon": 31.3555076
    },
    {
      "City": "Старица",
      "Lat": 56.514955,
      "Lon": 34.9335145
    },
    {
      "City": "Стародуб",
      "Lat": 52.5851881,
      "Lon": 32.7603628
    },
    {
      "City": "Старый Крым",
      "Lat": 45.0290659,
      "Lon": 35.0900885
    },
    {
      "City": "Старый Оскол",
      "Lat": 51.2965991,
      "Lon": 37.8349849
    },
    {
      "City": "Стерлитамак",
      "Lat": 53.6302498,
      "Lon": 55.9315707
    },
    {
      "City": "Стрежевой",
      "Lat": 60.7328199,
      "Lon": 77.6040323
    },
    {
      "City": "Строитель",
      "Lat": 50.7845571,
      "Lon": 36.4886619
    },
    {
      "City": "Струнино",
      "Lat": 56.3750001,
      "Lon": 38.583938
    },
    {
      "City": "Ступино",
      "Lat": 54.9238403,
      "Lon": 38.1186976
    },
    {
      "City": "Суворов",
      "Lat": 54.1345367,
      "Lon": 36.4806933
    },
    {
      "City": "Судак",
      "Lat": 44.8505913,
      "Lon": 34.9761591
    },
    {
      "City": "Суджа",
      "Lat": 51.1919711,
      "Lon": 35.2719619
    },
    {
      "City": "Судогда",
      "Lat": 55.949897,
      "Lon": 40.8563392
    },
    {
      "City": "Суздаль",
      "Lat": 56.4273814,
      "Lon": 40.4525581
    },
    {
      "City": "Суоярви",
      "Lat": 62.0787769,
      "Lon": 32.3499029
    },
    {
      "City": "Сураж",
      "Lat": 53.0171239,
      "Lon": 32.3938351
    },
    {
      "City": "Сургут",
      "Lat": 61.2539773,
      "Lon": 73.3961726
    },
    {
      "City": "Суровикино",
      "Lat": 48.6189756,
      "Lon": 42.8541308
    },
    {
      "City": "Сурск",
      "Lat": 53.0760597,
      "Lon": 45.6911897
    },
    {
      "City": "Сусуман",
      "Lat": 62.7804628,
      "Lon": 148.154033
    },
    {
      "City": "Сухиничи",
      "Lat": 54.0973787,
      "Lon": 35.3443077
    },
    {
      "City": "Сухой Лог",
      "Lat": 56.9075938,
      "Lon": 62.0358708
    },
    {
      "City": "Сызрань",
      "Lat": 53.1557213,
      "Lon": 48.4745419
    },
    {
      "City": "Сыктывкар",
      "Lat": 61.668789,
      "Lon": 50.8356491
    },
    {
      "City": "Сысерть",
      "Lat": 56.50052,
      "Lon": 60.8190708
    },
    {
      "City": "Сычевка",
      "Lat": 55.8307397,
      "Lon": 34.277868
    },
    {
      "City": "Сясьстрой",
      "Lat": 60.1402454,
      "Lon": 32.5602015
    },
    {
      "City": "Тавда",
      "Lat": 58.0434196,
      "Lon": 65.2743232
    },
    {
      "City": "Таганрог",
      "Lat": 47.2094907,
      "Lon": 38.935154
    },
    {
      "City": "Тайга",
      "Lat": 56.0622767,
      "Lon": 85.6207907
    },
    {
      "City": "Тайшет",
      "Lat": 55.9405397,
      "Lon": 98.0030649
    },
    {
      "City": "Талдом",
      "Lat": 56.7308993,
      "Lon": 37.5276414
    },
    {
      "City": "Талица",
      "Lat": 57.0123359,
      "Lon": 63.7322467
    },
    {
      "City": "Тамбов",
      "Lat": 52.7213021,
      "Lon": 41.452258
    },
    {
      "City": "Тара",
      "Lat": 56.9159171,
      "Lon": 74.3649643
    },
    {
      "City": "Тарко-Сале",
      "Lat": 64.9117649,
      "Lon": 77.7610204
    },
    {
      "City": "Таруса",
      "Lat": 54.7236791,
      "Lon": 37.1670866
    },
    {
      "City": "Татарск",
      "Lat": 55.2145894,
      "Lon": 75.9740805
    },
    {
      "City": "Таштагол",
      "Lat": 52.7594505,
      "Lon": 87.8477272
    },
    {
      "City": "Тверь",
      "Lat": 56.8585396,
      "Lon": 35.9117898
    },
    {
      "City": "Теберда",
      "Lat": 43.4438408,
      "Lon": 41.7414924
    },
    {
      "City": "Тейково",
      "Lat": 56.8542712,
      "Lon": 40.5355289
    },
    {
      "City": "Темников",
      "Lat": 54.6309086,
      "Lon": 43.2161785
    },
    {
      "City": "Темрюк",
      "Lat": 45.2611082,
      "Lon": 37.445519
    },
    {
      "City": "Терек",
      "Lat": 43.4838439,
      "Lon": 44.1402524
    },
    {
      "City": "Тетюши",
      "Lat": 54.936575,
      "Lon": 48.8314915
    },
    {
      "City": "Тимашевск",
      "Lat": 45.6159358,
      "Lon": 38.9350513
    },
    {
      "City": "Тихвин",
      "Lat": 59.6273809,
      "Lon": 33.5072307
    },
    {
      "City": "Тихорецк",
      "Lat": 45.8546953,
      "Lon": 40.1258702
    },
    {
      "City": "Тобольск",
      "Lat": 58.2016828,
      "Lon": 68.2538392
    },
    {
      "City": "Тогучин",
      "Lat": 55.2250038,
      "Lon": 84.4103867
    },
    {
      "City": "Тольятти",
      "Lat": 53.5206438,
      "Lon": 49.389461
    },
    {
      "City": "Томари",
      "Lat": 47.7619957,
      "Lon": 142.061508
    },
    {
      "City": "Томмот",
      "Lat": 58.9586939,
      "Lon": 126.2875375
    },
    {
      "City": "Томск",
      "Lat": 56.4847036,
      "Lon": 84.9481737
    },
    {
      "City": "Топки",
      "Lat": 55.2766036,
      "Lon": 85.6153223
    },
    {
      "City": "Торжок",
      "Lat": 57.0412804,
      "Lon": 34.9600691
    },
    {
      "City": "Торопец",
      "Lat": 56.5011791,
      "Lon": 31.6354366
    },
    {
      "City": "Тосно",
      "Lat": 59.5406697,
      "Lon": 30.8777872
    },
    {
      "City": "Тотьма",
      "Lat": 59.9735051,
      "Lon": 42.7589701
    },
    {
      "City": "Трехгорный",
      "Lat": 54.8178174,
      "Lon": 58.4465039
    },
    {
      "City": "Троицк",
      "Lat": 54.0844132,
      "Lon": 61.5585503
    },
    {
      "City": "Трубчевск",
      "Lat": 52.5791314,
      "Lon": 33.7660013
    },
    {
      "City": "Туапсе",
      "Lat": 44.1103707,
      "Lon": 39.082645
    },
    {
      "City": "Туймазы",
      "Lat": 54.5999889,
      "Lon": 53.6949081
    },
    {
      "City": "Тула",
      "Lat": 54.192017,
      "Lon": 37.6153885
    },
    {
      "City": "Тулун",
      "Lat": 54.5571409,
      "Lon": 100.5779402
    },
    {
      "City": "Туран",
      "Lat": 52.144932,
      "Lon": 93.9172495
    },
    {
      "City": "Туринск",
      "Lat": 58.0394258,
      "Lon": 63.698142
    },
    {
      "City": "Тутаев",
      "Lat": 57.8674237,
      "Lon": 39.5368234
    },
    {
      "City": "Тында",
      "Lat": 55.1546401,
      "Lon": 124.7468634
    },
    {
      "City": "Тырныауз",
      "Lat": 43.3981939,
      "Lon": 42.9215127
    },
    {
      "City": "Тюкалинск",
      "Lat": 55.8705121,
      "Lon": 72.1956156
    },
    {
      "City": "Тюмень",
      "Lat": 57.1530824,
      "Lon": 65.5343118
    },
    {
      "City": "Уварово",
      "Lat": 51.9768835,
      "Lon": 42.2529568
    },
    {
      "City": "Углегорск",
      "Lat": 49.0816311,
      "Lon": 142.0693033
    },
    {
      "City": "Углич",
      "Lat": 57.5223866,
      "Lon": 38.3019793
    },
    {
      "City": "Удачный",
      "Lat": 66.4072367,
      "Lon": 112.3061653
    },
    {
      "City": "Удомля",
      "Lat": 57.8787885,
      "Lon": 35.016716
    },
    {
      "City": "Ужур",
      "Lat": 55.3141977,
      "Lon": 89.8333827
    },
    {
      "City": "Узловая",
      "Lat": 53.9731407,
      "Lon": 38.1763104
    },
    {
      "City": "Улан-Удэ",
      "Lat": 51.8334378,
      "Lon": 107.5841511
    },
    {
      "City": "Ульяновск",
      "Lat": 54.3080674,
      "Lon": 48.3748717
    },
    {
      "City": "Унеча",
      "Lat": 52.8460665,
      "Lon": 32.6757071
    },
    {
      "City": "Урай",
      "Lat": 60.1295842,
      "Lon": 64.8040117
    },
    {
      "City": "Урень",
      "Lat": 57.4612547,
      "Lon": 45.783394
    },
    {
      "City": "Уржум",
      "Lat": 57.1097612,
      "Lon": 50.0056278
    },
    {
      "City": "Урюпинск",
      "Lat": 50.7904767,
      "Lon": 42.0288589
    },
    {
      "City": "Усинск",
      "Lat": 65.9941116,
      "Lon": 57.5570054
    },
    {
      "City": "Усмань",
      "Lat": 52.0444165,
      "Lon": 39.7264516
    },
    {
      "City": "Усолье",
      "Lat": 59.4279356,
      "Lon": 56.6837783
    },
    {
      "City": "Усолье-Сибирское",
      "Lat": 52.7567192,
      "Lon": 103.6387694
    },
    {
      "City": "Уссурийск",
      "Lat": 43.79726,
      "Lon": 131.9517262
    },
    {
      "City": "Усть-Джегута",
      "Lat": 44.083852,
      "Lon": 41.971128
    },
    {
      "City": "Усть-Илимск",
      "Lat": 57.9431325,
      "Lon": 102.7414683
    },
    {
      "City": "Усть-Катав",
      "Lat": 54.9261323,
      "Lon": 58.1528067
    },
    {
      "City": "Усть-Кут",
      "Lat": 56.7928049,
      "Lon": 105.7756883
    },
    {
      "City": "Усть-Лабинск",
      "Lat": 45.222676,
      "Lon": 39.6930239
    },
    {
      "City": "Устюжна",
      "Lat": 58.8383671,
      "Lon": 36.4425046
    },
    {
      "City": "Уфа",
      "Lat": 54.734853,
      "Lon": 55.9578647
    },
    {
      "City": "Ухта",
      "Lat": 63.5564779,
      "Lon": 53.7014202
    },
    {
      "City": "Учалы",
      "Lat": 54.3066965,
      "Lon": 59.4126559
    },
    {
      "City": "Уяр",
      "Lat": 55.8131698,
      "Lon": 94.3282148
    },
    {
      "City": "Фатеж",
      "Lat": 52.0918591,
      "Lon": 35.8538912
    },
    {
      "City": "Феодосия",
      "Lat": 45.031878,
      "Lon": 35.3824772
    },
    {
      "City": "Фокино",
      "Lat": 42.9707163,
      "Lon": 132.4110209
    },
    {
      "City": "Фокино",
      "Lat": 53.4554552,
      "Lon": 34.4158537
    },
    {
      "City": "Фролово",
      "Lat": 49.7647809,
      "Lon": 43.6648936
    },
    {
      "City": "Фрязино",
      "Lat": 55.9590154,
      "Lon": 38.0409171
    },
    {
      "City": "Фурманов",
      "Lat": 57.2538043,
      "Lon": 41.1053808
    },
    {
      "City": "Хабаровск",
      "Lat": 48.4647991,
      "Lon": 135.0598811
    },
    {
      "City": "Хадыженск",
      "Lat": 44.412303,
      "Lon": 39.5319151
    },
    {
      "City": "Ханты-Мансийск",
      "Lat": 61.0024344,
      "Lon": 69.0183322
    },
    {
      "City": "Харабали",
      "Lat": 47.4089187,
      "Lon": 47.2524467
    },
    {
      "City": "Харовск",
      "Lat": 59.9477728,
      "Lon": 40.2000794
    },
    {
      "City": "Хасавюрт",
      "Lat": 43.2505191,
      "Lon": 46.5852276
    },
    {
      "City": "Хвалынск",
      "Lat": 52.4950057,
      "Lon": 48.1045147
    },
    {
      "City": "Хилок",
      "Lat": 51.3635236,
      "Lon": 110.458989
    },
    {
      "City": "Химки",
      "Lat": 55.8886705,
      "Lon": 37.4304154
    },
    {
      "City": "Холм",
      "Lat": 57.1451036,
      "Lon": 31.1787812
    },
    {
      "City": "Холмск",
      "Lat": 47.0408637,
      "Lon": 142.0416619
    },
    {
      "City": "Хотьково",
      "Lat": 56.2515725,
      "Lon": 37.9395225
    },
    {
      "City": "Цивильск",
      "Lat": 55.8650132,
      "Lon": 47.472967
    },
    {
      "City": "Цимлянск",
      "Lat": 47.6477668,
      "Lon": 42.093022
    },
    {
      "City": "Циолковский",
      "Lat": 51.7624346,
      "Lon": 128.121972
    },
    {
      "City": "Чадан",
      "Lat": 51.2844482,
      "Lon": 91.5789135
    },
    {
      "City": "Чайковский",
      "Lat": 56.7780203,
      "Lon": 54.1478482
    },
    {
      "City": "Чапаевск",
      "Lat": 52.9289662,
      "Lon": 49.8674222
    },
    {
      "City": "Чаплыгин",
      "Lat": 53.2404794,
      "Lon": 39.9671563
    },
    {
      "City": "Чебаркуль",
      "Lat": 54.9819329,
      "Lon": 60.3773305
    },
    {
      "City": "Чебоксары",
      "Lat": 56.1439378,
      "Lon": 47.2488718
    },
    {
      "City": "Чегем",
      "Lat": 43.5672039,
      "Lon": 43.5865338
    },
    {
      "City": "Чекалин",
      "Lat": 54.0985105,
      "Lon": 36.2474377
    },
    {
      "City": "Челябинск",
      "Lat": 55.1603659,
      "Lon": 61.4007858
    },
    {
      "City": "Чердынь",
      "Lat": 60.4011184,
      "Lon": 56.4801391
    },
    {
      "City": "Черемхово",
      "Lat": 53.1369385,
      "Lon": 103.090119
    },
    {
      "City": "Черепаново",
      "Lat": 54.2206974,
      "Lon": 83.3724392
    },
    {
      "City": "Череповец",
      "Lat": 59.1269214,
      "Lon": 37.9092243
    },
    {
      "City": "Черкесск",
      "Lat": 44.2268637,
      "Lon": 42.0467829
    },
    {
      "City": "Чермоз",
      "Lat": 58.7842527,
      "Lon": 56.1507562
    },
    {
      "City": "Черноголовка",
      "Lat": 56.0100909,
      "Lon": 38.3792328
    },
    {
      "City": "Черногорск",
      "Lat": 53.8258425,
      "Lon": 91.3259669
    },
    {
      "City": "Чернушка",
      "Lat": 56.5161079,
      "Lon": 56.0763919
    },
    {
      "City": "Черняховск",
      "Lat": 54.6243928,
      "Lon": 21.7969179
    },
    {
      "City": "Чехов",
      "Lat": 55.1507175,
      "Lon": 37.4532591
    },
    {
      "City": "Чистополь",
      "Lat": 55.3699372,
      "Lon": 50.628495
    },
    {
      "City": "Чита",
      "Lat": 52.0340128,
      "Lon": 113.4994884
    },
    {
      "City": "Чкаловск",
      "Lat": 56.7651549,
      "Lon": 43.2420193
    },
    {
      "City": "Чудово",
      "Lat": 59.1247477,
      "Lon": 31.6865406
    },
    {
      "City": "Чулым",
      "Lat": 55.0906205,
      "Lon": 80.9592152
    },
    {
      "City": "Чусовой",
      "Lat": 58.2974725,
      "Lon": 57.8193122
    },
    {
      "City": "Чухлома",
      "Lat": 58.7534246,
      "Lon": 42.6883783
    },
    {
      "City": "Шагонар",
      "Lat": 51.5347357,
      "Lon": 92.9199618
    },
    {
      "City": "Шадринск",
      "Lat": 56.0870152,
      "Lon": 63.6298234
    },
    {
      "City": "Шали",
      "Lat": 43.148776,
      "Lon": 45.9009577
    },
    {
      "City": "Шарыпово",
      "Lat": 55.5389684,
      "Lon": 89.1801557
    },
    {
      "City": "Шарья",
      "Lat": 58.3761832,
      "Lon": 45.4060762
    },
    {
      "City": "Шатура",
      "Lat": 55.5777942,
      "Lon": 39.5443781
    },
    {
      "City": "Шахты",
      "Lat": 47.7084247,
      "Lon": 40.2159154
    },
    {
      "City": "Шахунья",
      "Lat": 57.6764773,
      "Lon": 46.6129673
    },
    {
      "City": "Шацк",
      "Lat": 54.0288845,
      "Lon": 41.7182108
    },
    {
      "City": "Шебекино",
      "Lat": 50.4005506,
      "Lon": 36.8877988
    },
    {
      "City": "Шелехов",
      "Lat": 52.2102462,
      "Lon": 104.0973531
    },
    {
      "City": "Шенкурск",
      "Lat": 62.1057423,
      "Lon": 42.89959
    },
    {
      "City": "Шилка",
      "Lat": 51.8495302,
      "Lon": 116.033575
    },
    {
      "City": "Шимановск",
      "Lat": 52.0052856,
      "Lon": 127.7006559
    },
    {
      "City": "Шиханы",
      "Lat": 52.1148241,
      "Lon": 47.2022928
    },
    {
      "City": "Шлиссельбург",
      "Lat": 59.9443923,
      "Lon": 31.0334136
    },
    {
      "City": "Шумерля",
      "Lat": 55.4961795,
      "Lon": 46.4183534
    },
    {
      "City": "Шумиха",
      "Lat": 55.2281833,
      "Lon": 63.2902391
    },
    {
      "City": "Шуя",
      "Lat": 56.8560743,
      "Lon": 41.3802455
    },
    {
      "City": "Щекино",
      "Lat": 54.0020749,
      "Lon": 37.517686
    },